{
"type": "FeatureCollection",
"features": [
{ "type": "Feature", "properties": { "organom": "Centre social Carrefour 18" }, "geometry": { "type": "Point", "coordinates": [ -1.672416964, 48.08716104 ] } },
{ "type": "Feature", "properties": { "organom": "Centre départemental d'action sociale - Rennes Le Blosne Francisco-Ferrer" }, "geometry": { "type": "Point", "coordinates": [ -1.657855103, 48.08847442 ] } },
{ "type": "Feature", "properties": { "organom": "Agence départementale du pays de Rennes" }, "geometry": { "type": "Point", "coordinates": [ -1.672664881, 48.11082077 ] } },
{ "type": "Feature", "properties": { "organom": "Centre social Ty-Blosne" }, "geometry": { "type": "Point", "coordinates": [ -1.658399999, 48.08863464 ] } },
{ "type": "Feature", "properties": { "organom": "Centre social Cleunay" }, "geometry": { "type": "Point", "coordinates": [ -1.707962366, 48.10003505 ] } },
{ "type": "Feature", "properties": { "organom": "CCAS antenne Champs Manceaux" }, "geometry": { "type": "Point", "coordinates": [ -1.681327336, 48.09197333 ] } },
{ "type": "Feature", "properties": { "organom": "CCAS antenne Villejean" }, "geometry": { "type": "Point", "coordinates": [ -1.71174875, 48.12153725 ] } },
{ "type": "Feature", "properties": { "organom": "Espace social culturel Aimé Césaire" }, "geometry": { "type": "Point", "coordinates": [ -1.681582288, 48.09187231 ] } },
{ "type": "Feature", "properties": { "organom": "La Longère" }, "geometry": { "type": "Point", "coordinates": [ -1.852421, 48.071425 ] } },
{ "type": "Feature", "properties": { "organom": "Espace social commun Cleunay" }, "geometry": { "type": "Point", "coordinates": [ -1.698720979, 48.10544948 ] } },
{ "type": "Feature", "properties": { "organom": "Agence départementale du pays de Rennes" }, "geometry": { "type": "Point", "coordinates": [ -1.672664881, 48.11082077 ] } },
{ "type": "Feature", "properties": { "organom": "Cité et médiation secteur Centre" }, "geometry": { "type": "Point", "coordinates": [ -1.672265852, 48.11128178 ] } },
{ "type": "Feature", "properties": { "organom": "Association sources" }, "geometry": { "type": "Point", "coordinates": [ -1.664003119, 48.08609542 ] } },
{ "type": "Feature", "properties": { "organom": "Commission de surendettement 35 banque de France" }, "geometry": { "type": "Point", "coordinates": [ -1.67808629, 48.11405539 ] } },
{ "type": "Feature", "properties": { "organom": "Cité et médiation secteur Sud-Ouest" }, "geometry": { "type": "Point", "coordinates": [ -1.681723078, 48.09201263 ] } },
{ "type": "Feature", "properties": { "organom": "Eglise Saint-Melaine" }, "geometry": { "type": "Point", "coordinates": [ -1.673261736, 48.11470226 ] } },
{ "type": "Feature", "properties": { "organom": "Optima - Correspondants de nuit Bréquigny\/Sud-gare" }, "geometry": null },
{ "type": "Feature", "properties": { "organom": "Maison Poullart des Places" }, "geometry": { "type": "Point", "coordinates": [ -1.673416327, 48.11734476 ] } },
{ "type": "Feature", "properties": { "organom": "La Tour d'Auvergne" }, "geometry": { "type": "Point", "coordinates": [ -1.683192167, 48.10407141 ] } },
{ "type": "Feature", "properties": { "organom": "Cercle Paul Bert Centre" }, "geometry": { "type": "Point", "coordinates": [ -1.667547278, 48.11199639 ] } },
{ "type": "Feature", "properties": { "organom": "Cercle Paul Bert Gayeulles" }, "geometry": { "type": "Point", "coordinates": [ -1.654075436, 48.13198222 ] } },
{ "type": "Feature", "properties": { "organom": "Maison de quartier Villejean" }, "geometry": { "type": "Point", "coordinates": [ -1.707437462, 48.11953406 ] } },
{ "type": "Feature", "properties": { "organom": "Kreizenn  Dudi - Diwan Bro Roazhon" }, "geometry": { "type": "Point", "coordinates": [ -1.666352705, 48.08385224 ] } },
{ "type": "Feature", "properties": { "organom": "Cercle Paul Bert Blosne Pôle Landrel" }, "geometry": { "type": "Point", "coordinates": [ -1.653350911, 48.08953375 ] } },
{ "type": "Feature", "properties": { "organom": "Ville de Rennes - Direction de l'éducation et de l'enfance" }, "geometry": { "type": "Point", "coordinates": [ -1.660498144, 48.11370951 ] } },
{ "type": "Feature", "properties": { "organom": "Accueil de loisirs Dominique Savio" }, "geometry": { "type": "Point", "coordinates": [ -1.633881282, 48.1450958 ] } },
{ "type": "Feature", "properties": { "organom": "Accueil de loisirs Trégain" }, "geometry": { "type": "Point", "coordinates": [ -1.662198329, 48.12585203 ] } },
{ "type": "Feature", "properties": { "organom": "Accueil de loisirs Jean Rostand" }, "geometry": { "type": "Point", "coordinates": [ -1.6366842308, 48.1282041869 ] } },
{ "type": "Feature", "properties": { "organom": "Accueil de loisirs Clôteaux" }, "geometry": { "type": "Point", "coordinates": [ -1.692522415, 48.08385133 ] } },
{ "type": "Feature", "properties": { "organom": "Bibliothèque Thabor - Lucien Rose" }, "geometry": { "type": "Point", "coordinates": [ -1.666436138, 48.11361117 ] } },
{ "type": "Feature", "properties": { "organom": "Ville de Rennes - Direction de la bibliothèque municipale" }, "geometry": { "type": "Point", "coordinates": [ -1.7003731, 48.10785063 ] } },
{ "type": "Feature", "properties": { "organom": "Espace lecture Saint-Martin" }, "geometry": { "type": "Point", "coordinates": [ -1.685703696, 48.122952 ] } },
{ "type": "Feature", "properties": { "organom": "Bibliothèque Longs Champs" }, "geometry": { "type": "Point", "coordinates": [ -1.635549791, 48.12804386 ] } },
{ "type": "Feature", "properties": { "organom": "Médiathèque municipale d'Acigné" }, "geometry": { "type": "Point", "coordinates": [ -1.5344216516, 48.134112561499997 ] } },
{ "type": "Feature", "properties": { "organom": "Bibliothèque municipale de Bourgbarré" }, "geometry": { "type": "Point", "coordinates": [ -1.6149983192, 47.994875581099997 ] } },
{ "type": "Feature", "properties": { "organom": "Médiathèque municipale de Bruz" }, "geometry": { "type": "Point", "coordinates": [ -1.7443925767, 48.023334531499998 ] } },
{ "type": "Feature", "properties": { "organom": "Médiathèque Au Pré Vert" }, "geometry": { "type": "Point", "coordinates": [ -1.7322661641, 48.176882913299998 ] } },
{ "type": "Feature", "properties": { "organom": "Médiathéque municipale de Saint-Gilles" }, "geometry": { "type": "Point", "coordinates": [ -1.8285673676, 48.155559789100003 ] } },
{ "type": "Feature", "properties": { "organom": "Médiathèque de Saint-Grégoire" }, "geometry": { "type": "Point", "coordinates": [ -1.6885859641, 48.153403491600002 ] } },
{ "type": "Feature", "properties": { "organom": "Bibliothèque des Champs Libres" }, "geometry": { "type": "Point", "coordinates": [ -1.674383464, 48.10526824 ] } },
{ "type": "Feature", "properties": { "organom": "Association Bretagne-Japon" }, "geometry": { "type": "Point", "coordinates": [ -1.6765721, 48.10490703 ] } },
{ "type": "Feature", "properties": { "organom": "Bibliothèque de rue" }, "geometry": { "type": "Point", "coordinates": [ -1.65393927, 48.09318554 ] } },
{ "type": "Feature", "properties": { "organom": "Maison des associations" }, "geometry": { "type": "Point", "coordinates": [ -1.6765747055, 48.104922084 ] } },
{ "type": "Feature", "properties": { "organom": "Ecole européenne supérieure d’art de Bretagne – site de Rennes" }, "geometry": { "type": "Point", "coordinates": [ -1.676181506, 48.11433253 ] } },
{ "type": "Feature", "properties": { "organom": "Rennes pôle association - Espace des deux rives" }, "geometry": { "type": "Point", "coordinates": [ -1.659959785, 48.10813704 ] } },
{ "type": "Feature", "properties": { "organom": "Association Lillico" }, "geometry": { "type": "Point", "coordinates": [ -1.691516972, 48.11152747 ] } },
{ "type": "Feature", "properties": { "organom": "La Paillette" }, "geometry": { "type": "Point", "coordinates": [ -1.695843124, 48.10979845 ] } },
{ "type": "Feature", "properties": { "organom": "Cercle Paul Bert - Centre Renée Prévert" }, "geometry": { "type": "Point", "coordinates": [ -1.712188174, 48.10969059 ] } },
{ "type": "Feature", "properties": { "organom": "Maison de quartier Saint-Martin" }, "geometry": { "type": "Point", "coordinates": [ -1.685661715, 48.12297741 ] } },
{ "type": "Feature", "properties": { "organom": "Cercle Paul Bert Longs Champs" }, "geometry": { "type": "Point", "coordinates": [ -1.635903433, 48.12770127 ] } },
{ "type": "Feature", "properties": { "organom": "Le Grand Cordel - Maison des jeunes et de la culture (MJC)" }, "geometry": { "type": "Point", "coordinates": [ -1.648014044, 48.12192026 ] } },
{ "type": "Feature", "properties": { "organom": "Maison de quartier Francisco-Ferrer" }, "geometry": { "type": "Point", "coordinates": [ -1.655937546, 48.09662344 ] } },
{ "type": "Feature", "properties": { "organom": "Cercle celtique de Rennes - Kelc'h Keltiek Roazhon- Cercl celtiq de Resnn" }, "geometry": { "type": "Point", "coordinates": [ -1.708190243, 48.12586864 ] } },
{ "type": "Feature", "properties": { "organom": "Maison verte" }, "geometry": { "type": "Point", "coordinates": [ -1.718277944, 48.12232915 ] } },
{ "type": "Feature", "properties": { "organom": "Maison du Parc" }, "geometry": { "type": "Point", "coordinates": [ -1.703676066, 48.13151618 ] } },
{ "type": "Feature", "properties": { "organom": "Maison de quartier Villejean" }, "geometry": { "type": "Point", "coordinates": [ -1.707437462, 48.11953406 ] } },
{ "type": "Feature", "properties": { "organom": "Centre social Ty-Blosne" }, "geometry": { "type": "Point", "coordinates": [ -1.658399999, 48.08863464 ] } },
{ "type": "Feature", "properties": { "organom": "Cercle Paul Bert Blosne Pôle Savary" }, "geometry": { "type": "Point", "coordinates": [ -1.669902053, 48.08745406 ] } },
{ "type": "Feature", "properties": { "organom": "Le Patio" }, "geometry": { "type": "Point", "coordinates": [ -1.68414908, 48.08602711 ] } },
{ "type": "Feature", "properties": { "organom": "Pôle nouvelle technologie (PNT)" }, "geometry": { "type": "Point", "coordinates": [ -1.685002016, 48.09912749 ] } },
{ "type": "Feature", "properties": { "organom": "Pôle multimédia Maison des squares" }, "geometry": { "type": "Point", "coordinates": [ -1.658738847, 48.08799433 ] } },
{ "type": "Feature", "properties": { "organom": "Atelier du Thabor" }, "geometry": { "type": "Point", "coordinates": [ -1.673785701, 48.11490397 ] } },
{ "type": "Feature", "properties": { "organom": "Le Jardin Moderne" }, "geometry": { "type": "Point", "coordinates": [ -1.725596593, 48.10168791 ] } },
{ "type": "Feature", "properties": { "organom": "ADEC-Maison du théâtre amateur" }, "geometry": { "type": "Point", "coordinates": [ -1.693935342, 48.11051612 ] } },
{ "type": "Feature", "properties": { "organom": "La Maison de la Poésie" }, "geometry": { "type": "Point", "coordinates": [ -1.676436756, 48.12384061 ] } },
{ "type": "Feature", "properties": { "organom": "Le Bon Accueil" }, "geometry": { "type": "Point", "coordinates": [ -1.675445514, 48.12342288 ] } },
{ "type": "Feature", "properties": { "organom": "Centre régional information jeunesse Bretagne" }, "geometry": { "type": "Point", "coordinates": [ -1.676321434, 48.10510023 ] } },
{ "type": "Feature", "properties": { "organom": "Centre de la Lande" }, "geometry": { "type": "Point", "coordinates": [ -1.7140315868, 48.080277528700002 ] } },
{ "type": "Feature", "properties": { "organom": "Institut thérapeutique éducatif et pédagogique" }, "geometry": { "type": "Point", "coordinates": [ -1.647330139, 48.09978253 ] } },
{ "type": "Feature", "properties": { "organom": "Les Acanthes" }, "geometry": { "type": "Point", "coordinates": [ -1.7714320697, 48.146779429699997 ] } },
{ "type": "Feature", "properties": { "organom": "Crèche Enfant'aisy" }, "geometry": { "type": "Point", "coordinates": [ -1.7066865308, 48.092706059100003 ] } },
{ "type": "Feature", "properties": { "organom": "Assia Réseau Una" }, "geometry": { "type": "Point", "coordinates": [ -1.655685854, 48.08710294 ] } },
{ "type": "Feature", "properties": { "organom": "Assia Réseau Una" }, "geometry": { "type": "Point", "coordinates": [ -1.7013424359, 48.037159114700003 ] } },
{ "type": "Feature", "properties": { "organom": "Association Valentin Haüy-Au service des aveugles et des malvoyants-Comité de Rennes et d'Ille et Vilaine" }, "geometry": { "type": "Point", "coordinates": [ -1.678304606, 48.11065313 ] } },
{ "type": "Feature", "properties": { "organom": "Bibliothèque des Champs Libres" }, "geometry": { "type": "Point", "coordinates": [ -1.674383464, 48.10526824 ] } },
{ "type": "Feature", "properties": { "organom": "Le goût de vivre" }, "geometry": { "type": "Point", "coordinates": [ -1.649501075, 48.11941167 ] } },
{ "type": "Feature", "properties": { "organom": "Ecole de reconversion professionnelle Jean-Janvier" }, "geometry": { "type": "Point", "coordinates": [ -1.69363138, 48.11537409 ] } },
{ "type": "Feature", "properties": { "organom": "L'Adapt Bretagne service Grafic" }, "geometry": { "type": "Point", "coordinates": [ -1.68719412, 48.13210435 ] } },
{ "type": "Feature", "properties": { "organom": "Fonds pour l'insertion professionnelle des personnes handicapées - Agefiph Bretagne" }, "geometry": { "type": "Point", "coordinates": [ -1.687603681, 48.12734984 ] } },
{ "type": "Feature", "properties": { "organom": "BGE Ille-et-Vilaine" }, "geometry": { "type": "Point", "coordinates": [ -1.636722329, 48.09616482 ] } },
{ "type": "Feature", "properties": { "organom": "Fil rouge 35" }, "geometry": { "type": "Point", "coordinates": [ -1.684104114, 48.0914549 ] } },
{ "type": "Feature", "properties": { "organom": "Archipel habitat" }, "geometry": { "type": "Point", "coordinates": [ -1.67571744, 48.09251914 ] } },
{ "type": "Feature", "properties": { "organom": "UFCV - Vacances adaptées" }, "geometry": { "type": "Point", "coordinates": [ -1.682396541, 48.1038885 ] } },
{ "type": "Feature", "properties": { "organom": "Association Roul'rêve" }, "geometry": { "type": "Point", "coordinates": [ -1.6423680808, 48.129327573200001 ] } },
{ "type": "Feature", "properties": { "organom": "EPAL association" }, "geometry": { "type": "Point", "coordinates": [ -1.672530535, 48.10216188 ] } },
{ "type": "Feature", "properties": { "organom": "Association PEP 35" }, "geometry": { "type": "Point", "coordinates": [ -1.669907813, 48.08823415 ] } },
{ "type": "Feature", "properties": { "organom": "Keolis Armor" }, "geometry": { "type": "Point", "coordinates": [ -1.6253016307, 48.097206601400003 ] } },
{ "type": "Feature", "properties": { "organom": "Ville de Rennes - Mission Handicap" }, "geometry": { "type": "Point", "coordinates": [ -1.682921142, 48.11065902 ] } },
{ "type": "Feature", "properties": { "organom": "Collectif handicap 35" }, "geometry": { "type": "Point", "coordinates": [ -1.666352705, 48.08385224 ] } },
{ "type": "Feature", "properties": { "organom": "Unité d’enseignement  Robert Desnos (pour enfants hospitalisés)" }, "geometry": { "type": "Point", "coordinates": [ -1.699196379, 48.12282955 ] } },
{ "type": "Feature", "properties": { "organom": "Ecole élémentaire La Chalotais" }, "geometry": null },
{ "type": "Feature", "properties": { "organom": "Collège de la Tour d'Auvergne\/ La Salle" }, "geometry": { "type": "Point", "coordinates": [ -1.685612223, 48.1086504 ] } },
{ "type": "Feature", "properties": { "organom": "Lycée professionnel Coëtlogon" }, "geometry": { "type": "Point", "coordinates": [ -1.693873838, 48.12289759 ] } },
{ "type": "Feature", "properties": { "organom": "Collège La Binquenais" }, "geometry": { "type": "Point", "coordinates": [ -1.663310858, 48.09090181 ] } },
{ "type": "Feature", "properties": { "organom": "Institut national des sciences appliquées" }, "geometry": { "type": "Point", "coordinates": [ -1.634423702, 48.12140047 ] } },
{ "type": "Feature", "properties": { "organom": "URAPEDA Bretagne - Pays de la Loire" }, "geometry": { "type": "Point", "coordinates": [ -1.666352705, 48.08385224 ] } },
{ "type": "Feature", "properties": { "organom": "Kerveïza" }, "geometry": { "type": "Point", "coordinates": [ -1.6594031858, 48.1265293011 ] } },
{ "type": "Feature", "properties": { "organom": "Association pour la promotion l'accompagnement et le reclassement des travailleurs handicapés" }, "geometry": { "type": "Point", "coordinates": [ -1.684104114, 48.0914549 ] } },
{ "type": "Feature", "properties": { "organom": "Retina" }, "geometry": { "type": "Point", "coordinates": [ -1.680279695, 48.08891025 ] } },
{ "type": "Feature", "properties": { "organom": "Dispositif de soutien aux tuteurs familiaux" }, "geometry": { "type": "Point", "coordinates": [ -1.713744666, 48.11474801 ] } },
{ "type": "Feature", "properties": { "organom": "Crèche La Poterie" }, "geometry": { "type": "Point", "coordinates": [ -1.639165909, 48.09072172 ] } },
{ "type": "Feature", "properties": { "organom": "Caf et familles" }, "geometry": { "type": "Point", "coordinates": [ -1.68666494, 48.10894146 ] } },
{ "type": "Feature", "properties": { "organom": "Crèche Les petits Loups" }, "geometry": { "type": "Point", "coordinates": [ -1.692633688, 48.11851808 ] } },
{ "type": "Feature", "properties": { "organom": "Crèche Enfant'aisy" }, "geometry": { "type": "Point", "coordinates": [ -1.7066865308, 48.092706059100003 ] } },
{ "type": "Feature", "properties": { "organom": "Crèche Les Fruits de la Passion" }, "geometry": { "type": "Point", "coordinates": [ -1.66110556, 48.13404976 ] } },
{ "type": "Feature", "properties": { "organom": "Crèche Françoise Dolto" }, "geometry": { "type": "Point", "coordinates": [ -1.657739718, 48.12570341 ] } },
{ "type": "Feature", "properties": { "organom": "Crèche Les Petits Potes" }, "geometry": { "type": "Point", "coordinates": [ -1.664386927, 48.09009117 ] } },
{ "type": "Feature", "properties": { "organom": "Crèche Au clair de la Lune" }, "geometry": { "type": "Point", "coordinates": [ -1.699238061, 48.12047892 ] } },
{ "type": "Feature", "properties": { "organom": "Crèche Enfant'aisy" }, "geometry": { "type": "Point", "coordinates": [ -1.7066865308, 48.092706059100003 ] } },
{ "type": "Feature", "properties": { "organom": "Centre social Maurepas" }, "geometry": { "type": "Point", "coordinates": [ -1.663943465, 48.12634394 ] } },
{ "type": "Feature", "properties": { "organom": "Centre départemental d'action sociale - Rennes Maurepas Patton" }, "geometry": { "type": "Point", "coordinates": [ -1.663530285, 48.12641099 ] } },
{ "type": "Feature", "properties": { "organom": "Association rennaise des centres sociaux" }, "geometry": { "type": "Point", "coordinates": [ -1.672489394, 48.08743971 ] } },
{ "type": "Feature", "properties": { "organom": "Centre communal d'action sociale (CCAS) - siège" }, "geometry": { "type": "Point", "coordinates": [ -1.683335214, 48.11107036 ] } },
{ "type": "Feature", "properties": { "organom": "Département d'Ille-et-Vilaine - Pôle solidarité - Direction lutte contre les exclusions" }, "geometry": { "type": "Point", "coordinates": [ -1.694028845, 48.12694383 ] } },
{ "type": "Feature", "properties": { "organom": "Association pour la promotion de l'action et de l'animation sociale (Apras)" }, "geometry": { "type": "Point", "coordinates": [ -1.6765747055, 48.104922084 ] } },
{ "type": "Feature", "properties": { "organom": "Société Saint-Vincent de Paul" }, "geometry": { "type": "Point", "coordinates": [ -1.682916426, 48.10313954 ] } },
{ "type": "Feature", "properties": { "organom": "SOS familles Emmaüs" }, "geometry": { "type": "Point", "coordinates": [ -1.675917236, 48.1037224 ] } },
{ "type": "Feature", "properties": { "organom": "Mairie de Saint-Erblon" }, "geometry": { "type": "Point", "coordinates": [ -1.650995, 48.017635 ] } },
{ "type": "Feature", "properties": { "organom": "Samu Social 115" }, "geometry": null },
{ "type": "Feature", "properties": { "organom": "Centre intercommunal d'action sociale (CIAS) à l'Ouest de Rennes" }, "geometry": { "type": "Point", "coordinates": [ -1.852421, 48.071425 ] } },
{ "type": "Feature", "properties": { "organom": "Mairie de Laillé" }, "geometry": { "type": "Point", "coordinates": [ -1.7207562686, 47.978692505799998 ] } },
{ "type": "Feature", "properties": { "organom": "Mairie d'Acigné" }, "geometry": { "type": "Point", "coordinates": [ -1.5333437811, 48.133366766 ] } },
{ "type": "Feature", "properties": { "organom": "Mairie de Brécé" }, "geometry": { "type": "Point", "coordinates": [ -1.4828997212, 48.110586727600001 ] } },
{ "type": "Feature", "properties": { "organom": "Mairie de Pacé" }, "geometry": { "type": "Point", "coordinates": [ -1.7725899343, 48.146758000799998 ] } },
{ "type": "Feature", "properties": { "organom": "Mairie de Gévezé" }, "geometry": { "type": "Point", "coordinates": [ -1.78854, 48.2204 ] } },
{ "type": "Feature", "properties": { "organom": "Mairie de Pont-Péan" }, "geometry": { "type": "Point", "coordinates": [ -1.706163663, 48.010883182699999 ] } },
{ "type": "Feature", "properties": { "organom": "Mairie de La Chapelle-Thouarault" }, "geometry": { "type": "Point", "coordinates": [ -1.866081, 48.123395 ] } },
{ "type": "Feature", "properties": { "organom": "Mairie de Cesson-Sévigné" }, "geometry": null },
{ "type": "Feature", "properties": { "organom": "Mairie de Saint-Armel" }, "geometry": null },
{ "type": "Feature", "properties": { "organom": "Pôle précarité insertion" }, "geometry": { "type": "Point", "coordinates": [ -1.666617244, 48.10923715 ] } },
{ "type": "Feature", "properties": { "organom": "Espace médiation" }, "geometry": { "type": "Point", "coordinates": [ -1.667991767, 48.08799233 ] } },
{ "type": "Feature", "properties": { "organom": "Restos du Cœur Le Guilloux" }, "geometry": { "type": "Point", "coordinates": [ -1.69888617, 48.1154731 ] } },
{ "type": "Feature", "properties": { "organom": "Eglise Saint-Sauveur" }, "geometry": { "type": "Point", "coordinates": [ -1.681765461, 48.1118165 ] } },
{ "type": "Feature", "properties": { "organom": "Eglise Saint-Jean-Marie Vianney" }, "geometry": { "type": "Point", "coordinates": [ -1.659663224, 48.12994502 ] } },
{ "type": "Feature", "properties": { "organom": "Eglise Toussaints" }, "geometry": { "type": "Point", "coordinates": [ -1.6763572123, 48.109025142599997 ] } },
{ "type": "Feature", "properties": { "organom": "Eglise Saint-Etienne" }, "geometry": { "type": "Point", "coordinates": [ -1.686412172, 48.1128486 ] } },
{ "type": "Feature", "properties": { "organom": "Rennes Métropole - Service enseignement supérieur-recherche" }, "geometry": { "type": "Point", "coordinates": [ -1.674958865, 48.09326276 ] } },
{ "type": "Feature", "properties": { "organom": "Lycée d'enseignement général technologique agricole Théodore Monod" }, "geometry": { "type": "Point", "coordinates": [ -1.8060414547, 48.100391359900001 ] } },
{ "type": "Feature", "properties": { "organom": "Service formation continue - Université Rennes 1" }, "geometry": { "type": "Point", "coordinates": [ -1.67233079, 48.11045608 ] } },
{ "type": "Feature", "properties": { "organom": "Ecole doctorale Mathématiques, télécommunications, informatique, signal, et système électronique" }, "geometry": { "type": "Point", "coordinates": [ -1.637838079, 48.11583399 ] } },
{ "type": "Feature", "properties": { "organom": "Ecole doctorale Sciences de la matière" }, "geometry": { "type": "Point", "coordinates": [ -1.637863409, 48.1159539 ] } },
{ "type": "Feature", "properties": { "organom": "Ecoles doctorales Sciences humaines et sociales et arts lettres langues" }, "geometry": { "type": "Point", "coordinates": [ -1.704012603, 48.12079662 ] } },
{ "type": "Feature", "properties": { "organom": "Presses universitaires de Rennes - SAIC éditions" }, "geometry": { "type": "Point", "coordinates": [ -1.70995876, 48.12537915 ] } },
{ "type": "Feature", "properties": { "organom": "Ecole supérieure d'art dramatique - Théâtre national de Bretagne" }, "geometry": { "type": "Point", "coordinates": [ -1.672671775, 48.10789447 ] } },
{ "type": "Feature", "properties": { "organom": "Ecole normale supérieure Rennes" }, "geometry": { "type": "Point", "coordinates": [ -1.747891, 48.044114 ] } },
{ "type": "Feature", "properties": { "organom": "Ecole des métiers de l'environnement" }, "geometry": { "type": "Point", "coordinates": [ -1.747891, 48.044114 ] } },
{ "type": "Feature", "properties": { "organom": "CentraleSupélec" }, "geometry": { "type": "Point", "coordinates": [ -1.628023598, 48.121737483899999 ] } },
{ "type": "Feature", "properties": { "organom": "Institut d'études politiques" }, "geometry": { "type": "Point", "coordinates": [ -1.66781025, 48.12138528 ] } },
{ "type": "Feature", "properties": { "organom": "Association ESUP Bretagne - Ecole de Rennes" }, "geometry": { "type": "Point", "coordinates": [ -1.664575404, 48.10561308 ] } },
{ "type": "Feature", "properties": { "organom": "LISAA" }, "geometry": { "type": "Point", "coordinates": [ -1.681097757, 48.10846081 ] } },
{ "type": "Feature", "properties": { "organom": "Ecole des avocats du grand Ouest" }, "geometry": { "type": "Point", "coordinates": [ -1.740227, 48.046378 ] } },
{ "type": "Feature", "properties": { "organom": "Institut régional sport et santé" }, "geometry": { "type": "Point", "coordinates": [ -1.6317838245, 48.120816311699997 ] } },
{ "type": "Feature", "properties": { "organom": "Institut de formation en pédicurie-podologie, ergothérapie, masso-kinésithérapie" }, "geometry": { "type": "Point", "coordinates": [ -1.69740581, 48.12507296 ] } },
{ "type": "Feature", "properties": { "organom": "Ecole d'infirmiers de bloc opératoire - CHU" }, "geometry": { "type": "Point", "coordinates": [ -1.695825919, 48.12067599 ] } },
{ "type": "Feature", "properties": { "organom": "Epitech Rennes" }, "geometry": { "type": "Point", "coordinates": [ -1.688743319, 48.10425281 ] } },
{ "type": "Feature", "properties": { "organom": "Cours Galien Rennes" }, "geometry": { "type": "Point", "coordinates": [ -1.685264532, 48.1196741 ] } },
{ "type": "Feature", "properties": { "organom": "Askoria - Les métiers des solidarités" }, "geometry": { "type": "Point", "coordinates": [ -1.701230308, 48.12579954 ] } },
{ "type": "Feature", "properties": { "organom": "Institut supérieur d'optique" }, "geometry": { "type": "Point", "coordinates": [ -1.670849132, 48.10442972 ] } },
{ "type": "Feature", "properties": { "organom": "Lycée de La Salle" }, "geometry": { "type": "Point", "coordinates": [ -1.668974087, 48.12507961 ] } },
{ "type": "Feature", "properties": { "organom": "Groupe Antoine de Saint-Exupéry" }, "geometry": { "type": "Point", "coordinates": [ -1.7115792711, 48.1325606061 ] } },
{ "type": "Feature", "properties": { "organom": "Lycée Victor et Hélène Basch" }, "geometry": { "type": "Point", "coordinates": [ -1.690546261, 48.12543082 ] } },
{ "type": "Feature", "properties": { "organom": "Bibliothèque universitaire Droit-Économie-Gestion - Université de Rennes 1" }, "geometry": { "type": "Point", "coordinates": [ -1.675469746, 48.11685188 ] } },
{ "type": "Feature", "properties": { "organom": "Bibliothèque universitaire Sciences et philosophie - Université de Rennes 1" }, "geometry": { "type": "Point", "coordinates": [ -1.635233, 48.119211 ] } },
{ "type": "Feature", "properties": { "organom": "Illenoo services" }, "geometry": null },
{ "type": "Feature", "properties": { "organom": "Agence Star" }, "geometry": { "type": "Point", "coordinates": [ -1.678799367, 48.10913892 ] } },
{ "type": "Feature", "properties": { "organom": "Fil santé jeunes" }, "geometry": null },
{ "type": "Feature", "properties": { "organom": "Bureau d'aide psychologique universitaire" }, "geometry": { "type": "Point", "coordinates": [ -1.674320244, 48.10734401 ] } },
{ "type": "Feature", "properties": { "organom": "Médecine préventive - Université de Rennes 1 et Rennes 2" }, "geometry": { "type": "Point", "coordinates": [ -1.642341865, 48.11802012 ] } },
{ "type": "Feature", "properties": { "organom": "Faculté des sciences économiques - Université de Rennes 1" }, "geometry": { "type": "Point", "coordinates": [ -1.676998214, 48.1162703 ] } },
{ "type": "Feature", "properties": { "organom": "Cité U Patton" }, "geometry": { "type": "Point", "coordinates": [ -1.664241125, 48.13162204 ] } },
{ "type": "Feature", "properties": { "organom": "Cité U Villejean Ouest" }, "geometry": { "type": "Point", "coordinates": [ -1.711810982, 48.1238957 ] } },
{ "type": "Feature", "properties": { "organom": "Smeba - Mutuelle des étudiants de Bretagne Atlantique - Accueil centre-ville" }, "geometry": { "type": "Point", "coordinates": [ -1.674465362, 48.11028067 ] } },
{ "type": "Feature", "properties": { "organom": "Résidence U Jean Ferrat" }, "geometry": { "type": "Point", "coordinates": [ -1.644768843, 48.12094993 ] } },
{ "type": "Feature", "properties": { "organom": "Résidence U Mirabeau" }, "geometry": { "type": "Point", "coordinates": [ -1.644286659, 48.1233472 ] } },
{ "type": "Feature", "properties": { "organom": "Résidence U La Harpe" }, "geometry": { "type": "Point", "coordinates": [ -1.710312559, 48.12645647 ] } },
{ "type": "Feature", "properties": { "organom": "Cafétéria diapason" }, "geometry": { "type": "Point", "coordinates": [ -1.643960773, 48.11803645 ] } },
{ "type": "Feature", "properties": { "organom": "Resto U Fougères" }, "geometry": { "type": "Point", "coordinates": [ -1.671214881, 48.11809163 ] } },
{ "type": "Feature", "properties": { "organom": "Resto U Le Melenik" }, "geometry": { "type": "Point", "coordinates": [ -1.684918736, 48.12239726 ] } },
{ "type": "Feature", "properties": { "organom": "Resto U L'Etoile" }, "geometry": { "type": "Point", "coordinates": [ -1.640051773, 48.12278858 ] } },
{ "type": "Feature", "properties": { "organom": "La mutuelle des étudiants (LMDE) - Villejean" }, "geometry": { "type": "Point", "coordinates": [ -1.701593467, 48.11906526 ] } },
{ "type": "Feature", "properties": { "organom": "Institut des Amériques" }, "geometry": { "type": "Point", "coordinates": [ -1.7040464087, 48.120899274099997 ] } },
{ "type": "Feature", "properties": { "organom": "CCI Bretagne" }, "geometry": { "type": "Point", "coordinates": [ -1.675350623, 48.11374363 ] } },
{ "type": "Feature", "properties": { "organom": "Centre national de la recherche scientifique - Délégation Bretagne et Pays de la Loire" }, "geometry": { "type": "Point", "coordinates": [ -1.709037113, 48.12739575 ] } },
{ "type": "Feature", "properties": { "organom": "Les Veilleurs pour l'Ille-et-Vilaine" }, "geometry": { "type": "Point", "coordinates": [ -1.675147794, 48.09180047 ] } },
{ "type": "Feature", "properties": { "organom": "Commission de règlement des litiges de consommation d'Ille-et-Vilaine" }, "geometry": { "type": "Point", "coordinates": [ -1.6738237206, 48.104694519699997 ] } },
{ "type": "Feature", "properties": { "organom": "Ville de Rennes - Mission action commerciale" }, "geometry": { "type": "Point", "coordinates": [ -1.682990633, 48.11075905 ] } },
{ "type": "Feature", "properties": { "organom": "Commission de surendettement 35 banque de France" }, "geometry": { "type": "Point", "coordinates": [ -1.67808629, 48.11405539 ] } },
{ "type": "Feature", "properties": { "organom": "Association pour l'aide aux commerçants" }, "geometry": { "type": "Point", "coordinates": [ -1.662558324, 48.12659946 ] } },
{ "type": "Feature", "properties": { "organom": "Association boutique solidaire Bretagne" }, "geometry": { "type": "Point", "coordinates": [ -1.671629362, 48.08744104 ] } },
{ "type": "Feature", "properties": { "organom": "Information défense du consommateur salarié CGT" }, "geometry": { "type": "Point", "coordinates": [ -1.666352705, 48.08385224 ] } },
{ "type": "Feature", "properties": { "organom": "Familles Rurales Rennes" }, "geometry": { "type": "Point", "coordinates": [ -1.67900454, 48.08929167 ] } },
{ "type": "Feature", "properties": { "organom": "Institut national de la propriété industrielle" }, "geometry": { "type": "Point", "coordinates": [ -1.6231203135, 48.130688387 ] } },
{ "type": "Feature", "properties": { "organom": "Le Carré de l'Info" }, "geometry": { "type": "Point", "coordinates": [ -1.679993015, 48.11001864 ] } },
{ "type": "Feature", "properties": { "organom": "Panier Hiroko" }, "geometry": { "type": "Point", "coordinates": [ -1.678214191, 48.1141078 ] } },
{ "type": "Feature", "properties": { "organom": "Le panier de la Dalle" }, "geometry": { "type": "Point", "coordinates": [ -1.7076083907, 48.119469099 ] } },
{ "type": "Feature", "properties": { "organom": "EARL de Blys" }, "geometry": { "type": "Point", "coordinates": [ -1.551214, 48.141172 ] } },
{ "type": "Feature", "properties": { "organom": "L'Ille au Pré" }, "geometry": { "type": "Point", "coordinates": [ -1.651894, 48.163864 ] } },
{ "type": "Feature", "properties": { "organom": "Douz'Arômes" }, "geometry": { "type": "Point", "coordinates": [ -1.628276, 48.15522 ] } },
{ "type": "Feature", "properties": { "organom": "La Ferme du Portail" }, "geometry": { "type": "Point", "coordinates": [ -1.625738, 47.989479 ] } },
{ "type": "Feature", "properties": { "organom": "Le Potager de Marius" }, "geometry": { "type": "Point", "coordinates": [ -1.6432652235, 48.22660283 ] } },
{ "type": "Feature", "properties": { "organom": "Mairie de quartier - service Formalités - Bréquigny\/Sud Gare" }, "geometry": { "type": "Point", "coordinates": [ -1.675699302, 48.09287994 ] } },
{ "type": "Feature", "properties": { "organom": "Hôtel de police" }, "geometry": { "type": "Point", "coordinates": [ -1.685940537, 48.10611943 ] } },
{ "type": "Feature", "properties": { "organom": "Casier judiciaire national" }, "geometry": null },
{ "type": "Feature", "properties": { "organom": "Ville de Rennes - Direction de la voirie -  Service propreté et fêtes" }, "geometry": { "type": "Point", "coordinates": [ -1.640738649, 48.1105139 ] } },
{ "type": "Feature", "properties": { "organom": "Centre du service national" }, "geometry": null },
{ "type": "Feature", "properties": { "organom": "Ville de Rennes - Service sécurité des établissements recevant du public" }, "geometry": { "type": "Point", "coordinates": [ -1.712851705, 48.10153538 ] } },
{ "type": "Feature", "properties": { "organom": "Caisse d'Allocations Familiales (Caf) d'Ille-et-Vilaine" }, "geometry": { "type": "Point", "coordinates": [ -1.674500625, 48.10590463 ] } },
{ "type": "Feature", "properties": { "organom": "Caisse d'assurance retraite et de la  santé au travail" }, "geometry": { "type": "Point", "coordinates": [ -1.637154942, 48.09436369 ] } },
{ "type": "Feature", "properties": { "organom": "Département d'Ille-et-Vilaine - Pôle solidarité - Direction lutte contre les exclusions" }, "geometry": { "type": "Point", "coordinates": [ -1.694028845, 48.12694383 ] } },
{ "type": "Feature", "properties": { "organom": "Rennes Métropole - Direction de l' assainissement" }, "geometry": { "type": "Point", "coordinates": [ -1.667420915, 48.10846827 ] } },
{ "type": "Feature", "properties": { "organom": "Centre des finances publiques de Rennes Magenta" }, "geometry": { "type": "Point", "coordinates": [ -1.675070989, 48.10692485 ] } },
{ "type": "Feature", "properties": { "organom": "Institut national de la statistique et des études économiques (Insee)" }, "geometry": { "type": "Point", "coordinates": [ -1.68041444, 48.10408993 ] } },
{ "type": "Feature", "properties": { "organom": "Tribunal administratif" }, "geometry": { "type": "Point", "coordinates": [ -1.675737777, 48.11296052 ] } },
{ "type": "Feature", "properties": { "organom": "Cour d'appel de Rennes" }, "geometry": { "type": "Point", "coordinates": [ -1.677808026, 48.11271851 ] } },
{ "type": "Feature", "properties": { "organom": "Direction territoriale de la protection judiciaire de la jeunesse d'Ille-et-Vilaine et des Côtes-d'Armor" }, "geometry": { "type": "Point", "coordinates": [ -1.672518213, 48.10253608 ] } },
{ "type": "Feature", "properties": { "organom": "Poste Rennes Oberthur" }, "geometry": { "type": "Point", "coordinates": [ -1.658329957, 48.11427262 ] } },
{ "type": "Feature", "properties": { "organom": "Poste Rennes Saint-Hélier" }, "geometry": { "type": "Point", "coordinates": [ -1.670066521, 48.10704268 ] } },
{ "type": "Feature", "properties": { "organom": "Poste Rennes Crimée" }, "geometry": { "type": "Point", "coordinates": [ -1.673997586, 48.08773124 ] } },
{ "type": "Feature", "properties": { "organom": "Ville de Rennes - Direction de la police municipale et du domaine public" }, "geometry": { "type": "Point", "coordinates": [ -1.674853476, 48.1117464 ] } },
{ "type": "Feature", "properties": { "organom": "Bureau de police - secteur Sud (Bréquigny - Le Blosne - Chantepie - St Jacques-de-la-Lande)" }, "geometry": { "type": "Point", "coordinates": [ -1.66254798, 48.08806471 ] } },
{ "type": "Feature", "properties": { "organom": "Rennes Métropole" }, "geometry": { "type": "Point", "coordinates": [ -1.675160115, 48.09328962 ] } },
{ "type": "Feature", "properties": { "organom": "Union départementale des associations familiales – Maison de la Famille" }, "geometry": { "type": "Point", "coordinates": [ -1.713745191, 48.11464674 ] } },
{ "type": "Feature", "properties": { "organom": "Caf et familles" }, "geometry": { "type": "Point", "coordinates": [ -1.68666494, 48.10894146 ] } },
{ "type": "Feature", "properties": { "organom": "Centre régional information jeunesse Bretagne" }, "geometry": { "type": "Point", "coordinates": [ -1.676321434, 48.10510023 ] } },
{ "type": "Feature", "properties": { "organom": "Skeudenn bro Roazhon" }, "geometry": { "type": "Point", "coordinates": [ -1.677221697, 48.11288691 ] } },
{ "type": "Feature", "properties": { "organom": "Destination Rennes - Office de tourisme" }, "geometry": { "type": "Point", "coordinates": [ -1.682726881, 48.11049821 ] } },
{ "type": "Feature", "properties": { "organom": "Association pour l'aide aux commerçants" }, "geometry": { "type": "Point", "coordinates": [ -1.662558324, 48.12659946 ] } },
{ "type": "Feature", "properties": { "organom": "Rennes Métropole - Point Info" }, "geometry": { "type": "Point", "coordinates": [ -1.675333679, 48.09295679 ] } },
{ "type": "Feature", "properties": { "organom": "Maison de l'architecture et des espaces en Bretagne" }, "geometry": { "type": "Point", "coordinates": [ -1.682253118, 48.11113845 ] } },
{ "type": "Feature", "properties": { "organom": "Agence Star" }, "geometry": { "type": "Point", "coordinates": [ -1.678799367, 48.10913892 ] } },
{ "type": "Feature", "properties": { "organom": "Observatoire et pôle d'animation des retraités rennais (Opar)" }, "geometry": { "type": "Point", "coordinates": [ -1.6815856329, 48.1181014828 ] } },
{ "type": "Feature", "properties": { "organom": "Accueil CPAM \/ Rennes siège" }, "geometry": { "type": "Point", "coordinates": [ -1.674751621, 48.10588536 ] } },
{ "type": "Feature", "properties": { "organom": "Optima - Correspondants de nuit Le Blosne" }, "geometry": null },
{ "type": "Feature", "properties": { "organom": "Commission de règlement des litiges de consommation d'Ille-et-Vilaine" }, "geometry": { "type": "Point", "coordinates": [ -1.6738237206, 48.104694519699997 ] } },
{ "type": "Feature", "properties": { "organom": "Association cité et médiation" }, "geometry": { "type": "Point", "coordinates": [ -1.667991767, 48.08799233 ] } },
{ "type": "Feature", "properties": { "organom": "Ordre des avocats" }, "geometry": { "type": "Point", "coordinates": [ -1.687061641, 48.10513587 ] } },
{ "type": "Feature", "properties": { "organom": "Agence régionale d'information stratégique et technologique (Arist-Bretagne)" }, "geometry": { "type": "Point", "coordinates": [ -1.6962341562, 48.1253420181 ] } },
{ "type": "Feature", "properties": { "organom": "Chambre de commerce et d’industrie de Rennes" }, "geometry": { "type": "Point", "coordinates": [ -1.692110097, 48.12715602 ] } },
{ "type": "Feature", "properties": { "organom": "Agence d'urbanisme et de développement intercommunal de l'agglomération rennaise (Audiar)" }, "geometry": { "type": "Point", "coordinates": [ -1.675936229, 48.09255277 ] } },
{ "type": "Feature", "properties": { "organom": "Institut national de la propriété industrielle" }, "geometry": { "type": "Point", "coordinates": [ -1.6231203135, 48.130688387 ] } },
{ "type": "Feature", "properties": { "organom": "Association Gulliver" }, "geometry": { "type": "Point", "coordinates": [ -1.673827015, 48.10470575 ] } },
{ "type": "Feature", "properties": { "organom": "Maison de la consommation et de l'environnement (MCE)" }, "geometry": { "type": "Point", "coordinates": [ -1.673896275, 48.10466509 ] } },
{ "type": "Feature", "properties": { "organom": "SOS familles Emmaüs" }, "geometry": { "type": "Point", "coordinates": [ -1.675917236, 48.1037224 ] } },
{ "type": "Feature", "properties": { "organom": "Union départementale des associations familiales – Maison de la Famille" }, "geometry": { "type": "Point", "coordinates": [ -1.713745191, 48.11464674 ] } },
{ "type": "Feature", "properties": { "organom": "Carré Rennais - Fédération des commerçants et artisans rennais réunis" }, "geometry": { "type": "Point", "coordinates": [ -1.676880104, 48.1118355897 ] } },
{ "type": "Feature", "properties": { "organom": "Association Renn'Arts" }, "geometry": { "type": "Point", "coordinates": [ -1.692038154, 48.11222166 ] } },
{ "type": "Feature", "properties": { "organom": "Ville de Rennes - Direction police municipale domaine public" }, "geometry": { "type": "Point", "coordinates": [ -1.6747970139, 48.111675748499998 ] } },
{ "type": "Feature", "properties": { "organom": "Ville de Rennes-Direction de la police municipale et du domaine public" }, "geometry": { "type": "Point", "coordinates": [ -1.67467109, 48.11168509 ] } },
{ "type": "Feature", "properties": { "organom": "Les moutons de Clarisse" }, "geometry": { "type": "Point", "coordinates": [ -1.501911, 48.113216 ] } },
{ "type": "Feature", "properties": { "organom": "Brin d'Herbe" }, "geometry": { "type": "Point", "coordinates": [ -1.615913, 48.081207 ] } },
{ "type": "Feature", "properties": { "organom": "Les Paniers des Vergers" }, "geometry": { "type": "Point", "coordinates": [ -1.79891, 48.060507 ] } },
{ "type": "Feature", "properties": { "organom": "la Ferme de Vélobert" }, "geometry": { "type": "Point", "coordinates": [ -1.612301, 47.974318 ] } },
{ "type": "Feature", "properties": { "organom": "Ferme de la Rocheraie" }, "geometry": { "type": "Point", "coordinates": [ -1.577967, 47.975724 ] } },
{ "type": "Feature", "properties": { "organom": "Les Herbes de l'Ecureuil" }, "geometry": { "type": "Point", "coordinates": [ -1.565311, 47.993195 ] } },
{ "type": "Feature", "properties": { "organom": "Ferme du Chatellier" }, "geometry": { "type": "Point", "coordinates": [ -1.813089, 48.133775 ] } },
{ "type": "Feature", "properties": { "organom": "GAEC de la Haie du Val" }, "geometry": { "type": "Point", "coordinates": [ -1.790716, 48.177081 ] } },
{ "type": "Feature", "properties": { "organom": "EARL Chauvin" }, "geometry": { "type": "Point", "coordinates": [ -1.79096, 48.137927 ] } },
{ "type": "Feature", "properties": { "organom": "La Belle Vilaine" }, "geometry": { "type": "Point", "coordinates": [ -1.830627, 48.16992 ] } },
{ "type": "Feature", "properties": { "organom": "Marché Sainte-Thérèse" }, "geometry": { "type": "Point", "coordinates": [ -1.66309271, 48.09420498 ] } },
{ "type": "Feature", "properties": { "organom": "Marché Landrel" }, "geometry": { "type": "Point", "coordinates": [ -1.655252704, 48.08787744 ] } },
{ "type": "Feature", "properties": { "organom": "Marché de Bourgbarré" }, "geometry": { "type": "Point", "coordinates": [ -1.6149301929, 47.9954848239 ] } },
{ "type": "Feature", "properties": { "organom": "Marché de Chavagne" }, "geometry": { "type": "Point", "coordinates": [ -1.7890865436, 48.052755583200003 ] } },
{ "type": "Feature", "properties": { "organom": "Marché de Corps-Nuds" }, "geometry": { "type": "Point", "coordinates": [ -1.5870249523, 47.978010582899998 ] } },
{ "type": "Feature", "properties": { "organom": "Marché de la Chapelle-des-Fougeretz" }, "geometry": { "type": "Point", "coordinates": [ -1.7339877518, 48.178142099299997 ] } },
{ "type": "Feature", "properties": { "organom": "Marché du Rheu" }, "geometry": { "type": "Point", "coordinates": [ -1.7943258455, 48.100931155300003 ] } },
{ "type": "Feature", "properties": { "organom": "Marché d'Orgères" }, "geometry": { "type": "Point", "coordinates": [ -1.6683435529, 47.995586506599999 ] } },
{ "type": "Feature", "properties": { "organom": "Marché de Vezin-le-Coquet" }, "geometry": { "type": "Point", "coordinates": [ -1.7529818041, 48.118259149799997 ] } },
{ "type": "Feature", "properties": { "organom": "Cercle Paul Bert Cleunay" }, "geometry": { "type": "Point", "coordinates": [ -1.705265684, 48.09869713 ] } },
{ "type": "Feature", "properties": { "organom": "Cercle Paul Bert Blosne Pôle Savary" }, "geometry": { "type": "Point", "coordinates": [ -1.669902053, 48.08745406 ] } },
{ "type": "Feature", "properties": { "organom": "Centre social Carrefour 18" }, "geometry": { "type": "Point", "coordinates": [ -1.672416964, 48.08716104 ] } },
{ "type": "Feature", "properties": { "organom": "Conservatoire à rayonnement régional" }, "geometry": { "type": "Point", "coordinates": [ -1.676919974, 48.11411909 ] } },
{ "type": "Feature", "properties": { "organom": "Div Yezh Bro Roazhon" }, "geometry": { "type": "Point", "coordinates": [ -1.671988828, 48.11241568 ] } },
{ "type": "Feature", "properties": { "organom": "Rectorat d'académie" }, "geometry": { "type": "Point", "coordinates": [ -1.673656598, 48.11938277 ] } },
{ "type": "Feature", "properties": { "organom": "Fédération des conseils de parents d'élèves d'Ille-et-Vilaine (FCPE)" }, "geometry": { "type": "Point", "coordinates": [ -1.706616905, 48.12267643 ] } },
{ "type": "Feature", "properties": { "organom": "Ville de Rennes - Direction de l'éducation et de l'enfance - Antenne sud-ouest" }, "geometry": { "type": "Point", "coordinates": [ -1.675730946, 48.09281641 ] } },
{ "type": "Feature", "properties": { "organom": "Etang d'Apigné" }, "geometry": { "type": "Point", "coordinates": [ -1.741182517, 48.09730212 ] } },
{ "type": "Feature", "properties": { "organom": "Base de plein air et de loisirs de la Prévalaye" }, "geometry": { "type": "Point", "coordinates": [ -1.738031064, 48.09252789 ] } },
{ "type": "Feature", "properties": { "organom": "Gymnase Félix Masson" }, "geometry": { "type": "Point", "coordinates": [ -1.6911373, 48.12383152 ] } },
{ "type": "Feature", "properties": { "organom": "Salle Kemal Cankaya" }, "geometry": { "type": "Point", "coordinates": [ -1.677396234, 48.08770251 ] } },
{ "type": "Feature", "properties": { "organom": "Ville de Rennes - Direction éducation enfance - Animation enfance" }, "geometry": { "type": "Point", "coordinates": [ -1.660365833, 48.11370001 ] } },
{ "type": "Feature", "properties": { "organom": "Ecole maternelle Notre-Dame du Vieux Cours" }, "geometry": { "type": "Point", "coordinates": [ -1.6794501, 48.1066082 ] } },
{ "type": "Feature", "properties": { "organom": "Ecole maternelle Saint-Vincent - Providence" }, "geometry": { "type": "Point", "coordinates": [ -1.662158381, 48.11339099 ] } },
{ "type": "Feature", "properties": { "organom": "Ecole maternelle Sainte-Bernadette" }, "geometry": { "type": "Point", "coordinates": [ -1.690017665, 48.09242947 ] } },
{ "type": "Feature", "properties": { "organom": "Ecole maternelle Saint-Malo" }, "geometry": { "type": "Point", "coordinates": [ -1.681689346, 48.11603632 ] } },
{ "type": "Feature", "properties": { "organom": "Ecole maternelle Camille-Claudel" }, "geometry": { "type": "Point", "coordinates": [ -1.667352352, 48.1211198 ] } },
{ "type": "Feature", "properties": { "organom": "Ecole maternelle Joseph Lotte" }, "geometry": { "type": "Point", "coordinates": [ -1.686258096, 48.12328565 ] } },
{ "type": "Feature", "properties": { "organom": "Ecole maternelle Jules Ferry" }, "geometry": { "type": "Point", "coordinates": [ -1.667521886, 48.13841504 ] } },
{ "type": "Feature", "properties": { "organom": "Ecole maternelle Trégain" }, "geometry": { "type": "Point", "coordinates": [ -1.662235217, 48.12614466 ] } },
{ "type": "Feature", "properties": { "organom": "Ecole maternelle Poterie" }, "geometry": { "type": "Point", "coordinates": [ -1.645676321, 48.09253682 ] } },
{ "type": "Feature", "properties": { "organom": "Ecole maternelle Marie Pape-Carpantier" }, "geometry": { "type": "Point", "coordinates": [ -1.694593138, 48.10616331 ] } },
{ "type": "Feature", "properties": { "organom": "Ecole maternelle Guyenne" }, "geometry": { "type": "Point", "coordinates": [ -1.718234533, 48.12099949 ] } },
{ "type": "Feature", "properties": { "organom": "Ecole maternelle Jean Moulin" }, "geometry": { "type": "Point", "coordinates": [ -1.706070257, 48.11854279 ] } },
{ "type": "Feature", "properties": { "organom": "Centre info-écoles" }, "geometry": { "type": "Point", "coordinates": [ -1.677073595, 48.10761071 ] } },
{ "type": "Feature", "properties": { "organom": "Ecole élémentaire Adoration" }, "geometry": { "type": "Point", "coordinates": [ -1.674868373, 48.11953995 ] } },
{ "type": "Feature", "properties": { "organom": "Ecole élémentaire Maria Montessori" }, "geometry": { "type": "Point", "coordinates": [ -1.715548689, 48.11110966 ] } },
{ "type": "Feature", "properties": { "organom": "Ecole élémentaire Jeanne d'Arc" }, "geometry": { "type": "Point", "coordinates": [ -1.653986859, 48.1190173 ] } },
{ "type": "Feature", "properties": { "organom": "Ecole élémentaire Saint-Armel" }, "geometry": { "type": "Point", "coordinates": [ -1.663743305, 48.08692324 ] } },
{ "type": "Feature", "properties": { "organom": "Ecole élémentaire Camille-Claudel" }, "geometry": { "type": "Point", "coordinates": [ -1.668030358, 48.1209693 ] } },
{ "type": "Feature", "properties": { "organom": "Ecole élémentaire Duchesse Anne" }, "geometry": { "type": "Point", "coordinates": [ -1.666676963, 48.11292511 ] } },
{ "type": "Feature", "properties": { "organom": "Ecole élémentaire Marcel-Pagnol" }, "geometry": { "type": "Point", "coordinates": [ -1.65096319, 48.11599273 ] } },
{ "type": "Feature", "properties": { "organom": "Halte-crèche Croc'Mahon" }, "geometry": { "type": "Point", "coordinates": [ -1.689478625, 48.11742383 ] } },
{ "type": "Feature", "properties": { "organom": "Espace social commun Villejean" }, "geometry": { "type": "Point", "coordinates": [ -1.711517268, 48.12166544 ] } },
{ "type": "Feature", "properties": { "organom": "Assia Réseau Una" }, "geometry": { "type": "Point", "coordinates": [ -1.655685854, 48.08710294 ] } },
{ "type": "Feature", "properties": { "organom": "Halte-garderie Ty-Blosne" }, "geometry": { "type": "Point", "coordinates": [ -1.658297048, 48.0884553 ] } },
{ "type": "Feature", "properties": { "organom": "Halte-garderie Longs-Prés" }, "geometry": { "type": "Point", "coordinates": [ -1.655937998, 48.13250423 ] } },
{ "type": "Feature", "properties": { "organom": "Mairie de La Chapelle-des-Fougeretz" }, "geometry": { "type": "Point", "coordinates": [ -1.7327085868, 48.177068474599999 ] } },
{ "type": "Feature", "properties": { "organom": "CCAS de Chartres de Bretagne" }, "geometry": { "type": "Point", "coordinates": [ -1.7054889133, 48.042539141399999 ] } },
{ "type": "Feature", "properties": { "organom": "Mairie de Mordelles" }, "geometry": { "type": "Point", "coordinates": [ -1.847448761, 48.073061686899997 ] } },
{ "type": "Feature", "properties": { "organom": "Mairie de Saint-Grégoire" }, "geometry": { "type": "Point", "coordinates": [ -1.683788811, 48.153833841 ] } },
{ "type": "Feature", "properties": { "organom": "Mairie de Le Rheu" }, "geometry": { "type": "Point", "coordinates": [ -1.7943258455, 48.100931155300003 ] } },
{ "type": "Feature", "properties": { "organom": "Mairie de Le Verger" }, "geometry": { "type": "Point", "coordinates": [ -1.9325905359, 48.070846466600003 ] } },
{ "type": "Feature", "properties": { "organom": "Mairie de Chavagne" }, "geometry": { "type": "Point", "coordinates": [ -1.7873790674, 48.052679065200003 ] } },
{ "type": "Feature", "properties": { "organom": "Mairie de Saint-Sulpice-la-Forêt" }, "geometry": { "type": "Point", "coordinates": [ -1.5786888156, 48.2183932083 ] } },
{ "type": "Feature", "properties": { "organom": "Mairie de Orgères" }, "geometry": { "type": "Point", "coordinates": [ -1.6615890173, 48.0426191484 ] } },
{ "type": "Feature", "properties": { "organom": "Centre départemental d'action sociale - Rennes Villejean St-Martin" }, "geometry": { "type": "Point", "coordinates": [ -1.711128117, 48.1215334 ] } },
{ "type": "Feature", "properties": { "organom": "Centre social Villejean" }, "geometry": { "type": "Point", "coordinates": [ -1.711523261, 48.12152912 ] } },
{ "type": "Feature", "properties": { "organom": "Centre départemental d'action sociale - Rennes Cleunay - Saint-Cyr" }, "geometry": { "type": "Point", "coordinates": [ -1.698902897, 48.10539506 ] } },
{ "type": "Feature", "properties": { "organom": "CCAS antenne Maurepas" }, "geometry": { "type": "Point", "coordinates": [ -1.663906359, 48.12646041 ] } },
{ "type": "Feature", "properties": { "organom": "Mairie de quartier – service Formalités – Le Blosne\/Francisco Ferrer\/Landry\/Poterie" }, "geometry": { "type": "Point", "coordinates": [ -1.658186539, 48.08845525 ] } },
{ "type": "Feature", "properties": { "organom": "Espace social commun Villejean" }, "geometry": { "type": "Point", "coordinates": [ -1.711517268, 48.12166544 ] } },
{ "type": "Feature", "properties": { "organom": "Banque alimentaire" }, "geometry": { "type": "Point", "coordinates": [ -1.7667832728, 48.146215923600003 ] } },
{ "type": "Feature", "properties": { "organom": "Association de sauvegarde de l'enfant à l'adulte en Ille-et-Vilaine" }, "geometry": { "type": "Point", "coordinates": [ -1.6832199266, 48.1443750878 ] } },
{ "type": "Feature", "properties": { "organom": "Espace social commun Gros Chêne" }, "geometry": { "type": "Point", "coordinates": [ -1.663769176, 48.12647391 ] } },
{ "type": "Feature", "properties": { "organom": "Mairie de Vezin-le-Coquet" }, "geometry": { "type": "Point", "coordinates": [ -1.75518978, 48.119130246499999 ] } },
{ "type": "Feature", "properties": { "organom": "Union départementale des associations familiales – Maison de la Famille" }, "geometry": { "type": "Point", "coordinates": [ -1.713745191, 48.11464674 ] } },
{ "type": "Feature", "properties": { "organom": "Parent'aise" }, "geometry": { "type": "Point", "coordinates": [ -1.683595992, 48.10384269 ] } },
{ "type": "Feature", "properties": { "organom": "Ville de Rennes - Direction solidarité santé" }, "geometry": { "type": "Point", "coordinates": [ -1.683303594, 48.11107665 ] } },
{ "type": "Feature", "properties": { "organom": "Cité et médiation secteur Sud-Est" }, "geometry": { "type": "Point", "coordinates": [ -1.64078323, 48.09282513 ] } },
{ "type": "Feature", "properties": { "organom": "Eglise Saint-Laurent" }, "geometry": { "type": "Point", "coordinates": [ -1.665152337, 48.12463331 ] } },
{ "type": "Feature", "properties": { "organom": "Optima - Correspondants de nuit Maurepas Sud" }, "geometry": null },
{ "type": "Feature", "properties": { "organom": "Optima - Correspondants de nuit Villejean" }, "geometry": null },
{ "type": "Feature", "properties": { "organom": "Optima - Correspondants de nuit Le Blosne" }, "geometry": null },
{ "type": "Feature", "properties": { "organom": "Ferme des Basses Gayeulles" }, "geometry": { "type": "Point", "coordinates": [ -1.648822903, 48.13440829 ] } },
{ "type": "Feature", "properties": { "organom": "Maison de quartier Francisco-Ferrer" }, "geometry": { "type": "Point", "coordinates": [ -1.655937546, 48.09662344 ] } },
{ "type": "Feature", "properties": { "organom": "Cercle Paul Bert Rapatel" }, "geometry": { "type": "Point", "coordinates": [ -1.649798717, 48.09778455 ] } },
{ "type": "Feature", "properties": { "organom": "Maison de quartier La Binquenais" }, "geometry": { "type": "Point", "coordinates": [ -1.667211537, 48.09270388 ] } },
{ "type": "Feature", "properties": { "organom": "Centre de loisirs Pluriel" }, "geometry": { "type": "Point", "coordinates": [ -1.669648698, 48.0911764 ] } },
{ "type": "Feature", "properties": { "organom": "Antipode MJC Rennes" }, "geometry": { "type": "Point", "coordinates": [ -1.709310178, 48.10082214 ] } },
{ "type": "Feature", "properties": { "organom": "Association Les petits débrouillards de Bretagne" }, "geometry": { "type": "Point", "coordinates": [ -1.670356141, 48.08384001 ] } },
{ "type": "Feature", "properties": { "organom": "Cercle Paul Bert Blosne Pôle Savary" }, "geometry": { "type": "Point", "coordinates": [ -1.669902053, 48.08745406 ] } },
{ "type": "Feature", "properties": { "organom": "Ville de Rennes - Direction des sports et des activités physiques" }, "geometry": { "type": "Point", "coordinates": [ -1.674888981, 48.11191639 ] } },
{ "type": "Feature", "properties": { "organom": "Accueil de loisirs des Gayeulles" }, "geometry": { "type": "Point", "coordinates": [ -1.6410460062, 48.139570820599999 ] } },
{ "type": "Feature", "properties": { "organom": "Accueil de loisirs La Prévalaye" }, "geometry": { "type": "Point", "coordinates": [ -1.727026609, 48.09541071 ] } },
{ "type": "Feature", "properties": { "organom": "Accueil de loisirs Robert Doisneau" }, "geometry": { "type": "Point", "coordinates": [ -1.6413029202, 48.090151676300003 ] } },
{ "type": "Feature", "properties": { "organom": "Accueil de loisirs Jean Zay" }, "geometry": { "type": "Point", "coordinates": [ -1.671801263, 48.11482565 ] } },
{ "type": "Feature", "properties": { "organom": "Accueil de loisirs Gantelles" }, "geometry": { "type": "Point", "coordinates": [ -1.660854336, 48.13106484 ] } },
{ "type": "Feature", "properties": { "organom": "Accueil de loisirs Marcel Pagnol" }, "geometry": { "type": "Point", "coordinates": [ -1.650970575, 48.11575248 ] } },
{ "type": "Feature", "properties": { "organom": "Accueil de loisirs Sonia Delaunay" }, "geometry": { "type": "Point", "coordinates": [ -1.700649438, 48.13005501 ] } },
{ "type": "Feature", "properties": { "organom": "Bibliothèque Bourg-l'Evêque" }, "geometry": { "type": "Point", "coordinates": [ -1.693082165, 48.11301103 ] } },
{ "type": "Feature", "properties": { "organom": "Bibliothèque Champs Manceaux" }, "geometry": { "type": "Point", "coordinates": [ -1.681685141, 48.09196064 ] } },
{ "type": "Feature", "properties": { "organom": "Médiathèque de Chantepie" }, "geometry": { "type": "Point", "coordinates": [ -1.6168554, 48.0875122916 ] } },
{ "type": "Feature", "properties": { "organom": "Bibliothèque municipale de Chavagne" }, "geometry": { "type": "Point", "coordinates": [ -1.7906149153, 48.053884725300001 ] } },
{ "type": "Feature", "properties": { "organom": "Bibliothèque de La Chapelle-Thouarault" }, "geometry": { "type": "Point", "coordinates": [ -1.866081, 48.123395 ] } },
{ "type": "Feature", "properties": { "organom": "Médiathèque L’Autre Lieu" }, "geometry": { "type": "Point", "coordinates": [ -1.7942472845, 48.101642690600002 ] } },
{ "type": "Feature", "properties": { "organom": "Bibliothèque municipale Le Verger" }, "geometry": { "type": "Point", "coordinates": [ -1.9316115191, 48.069887285199997 ] } },
{ "type": "Feature", "properties": { "organom": "Bibliothèque municipale de Mordelles" }, "geometry": { "type": "Point", "coordinates": [ -1.8401565459, 48.076701506100001 ] } },
{ "type": "Feature", "properties": { "organom": "Médiathèque La Source" }, "geometry": { "type": "Point", "coordinates": [ -1.6620179026, 48.043578333 ] } },
{ "type": "Feature", "properties": { "organom": "Bibliothèque municipale de Parthenay-de-Bretagne" }, "geometry": { "type": "Point", "coordinates": [ -1.8315983633, 48.1918732707 ] } },
{ "type": "Feature", "properties": { "organom": "Bibliothèque de Saint-Sulpice-la-Forêt" }, "geometry": { "type": "Point", "coordinates": [ -1.5788524659, 48.217784778199999 ] } },
{ "type": "Feature", "properties": { "organom": "Médiathèque Alfred Jarry" }, "geometry": { "type": "Point", "coordinates": [ -1.5802, 48.153689 ] } },
{ "type": "Feature", "properties": { "organom": "Centre de documentation et d'échanges pour la solidarité internationale" }, "geometry": { "type": "Point", "coordinates": [ -1.672703992, 48.10564268 ] } },
{ "type": "Feature", "properties": { "organom": "Ludothèque de Maurepas" }, "geometry": { "type": "Point", "coordinates": [ -1.662885599, 48.12500566 ] } },
{ "type": "Feature", "properties": { "organom": "Cercle Paul Bert - Le Noroît" }, "geometry": { "type": "Point", "coordinates": [ -1.711073888, 48.11078869 ] } },
{ "type": "Feature", "properties": { "organom": "Accueil des villes françaises" }, "geometry": { "type": "Point", "coordinates": [ -1.689530696, 48.10879525 ] } },
{ "type": "Feature", "properties": { "organom": "Cercle Paul Bert Rapatel" }, "geometry": { "type": "Point", "coordinates": [ -1.649798717, 48.09778455 ] } },
{ "type": "Feature", "properties": { "organom": "Centre social Cleunay" }, "geometry": { "type": "Point", "coordinates": [ -1.707962366, 48.10003505 ] } },
{ "type": "Feature", "properties": { "organom": "Club sportif la Garnison" }, "geometry": { "type": "Point", "coordinates": [ -1.684473611, 48.10206986 ] } },
{ "type": "Feature", "properties": { "organom": "Antipode MJC Rennes" }, "geometry": { "type": "Point", "coordinates": [ -1.709310178, 48.10082214 ] } },
{ "type": "Feature", "properties": { "organom": "Cercle Paul Bert Cleunay" }, "geometry": { "type": "Point", "coordinates": [ -1.705265684, 48.09869713 ] } },
{ "type": "Feature", "properties": { "organom": "Ferme de la Harpe Centre Léo Lagrange" }, "geometry": { "type": "Point", "coordinates": [ -1.707592275, 48.1261086 ] } },
{ "type": "Feature", "properties": { "organom": "Maison des squares" }, "geometry": { "type": "Point", "coordinates": [ -1.658751789, 48.08800888 ] } },
{ "type": "Feature", "properties": { "organom": "Pôle associatif Landrel" }, "geometry": { "type": "Point", "coordinates": [ -1.652203733, 48.09077713 ] } },
{ "type": "Feature", "properties": { "organom": "Cercle Paul Bert Bréquigny" }, "geometry": { "type": "Point", "coordinates": [ -1.688306155, 48.08946294 ] } },
{ "type": "Feature", "properties": { "organom": "L'Hexagone" }, "geometry": { "type": "Point", "coordinates": [ -1.699049352, 48.08610992 ] } },
{ "type": "Feature", "properties": { "organom": "Pôle multimédia Maurepas" }, "geometry": { "type": "Point", "coordinates": [ -1.662556515, 48.1265965 ] } },
{ "type": "Feature", "properties": { "organom": "Pôle multimédia Association Les Trois Maisons" }, "geometry": { "type": "Point", "coordinates": [ -1.696030958, 48.10675014 ] } },
{ "type": "Feature", "properties": { "organom": "Théâtre La Paillette" }, "geometry": { "type": "Point", "coordinates": [ -1.697207288, 48.10925193 ] } },
{ "type": "Feature", "properties": { "organom": "Lycée Victor et Hélène Basch" }, "geometry": { "type": "Point", "coordinates": [ -1.690546261, 48.12543082 ] } },
{ "type": "Feature", "properties": { "organom": "Lycée d'enseignement général et professionnel Bréquigny" }, "geometry": { "type": "Point", "coordinates": [ -1.689731207, 48.08531537 ] } },
{ "type": "Feature", "properties": { "organom": "Centre de langues - Pôle formation continue" }, "geometry": { "type": "Point", "coordinates": [ -1.70197426, 48.1196892 ] } },
{ "type": "Feature", "properties": { "organom": "Centre régional des oeuvres universitaires et scolaires" }, "geometry": { "type": "Point", "coordinates": [ -1.67721608, 48.11680271 ] } },
{ "type": "Feature", "properties": { "organom": "Le Diapason (Service culturel de l'université de Rennes 1)" }, "geometry": { "type": "Point", "coordinates": [ -1.643919357, 48.11820275 ] } },
{ "type": "Feature", "properties": { "organom": "Service culturel - Université Rennes 2" }, "geometry": { "type": "Point", "coordinates": [ -1.70436757, 48.11939784 ] } },
{ "type": "Feature", "properties": { "organom": "Agrocampus Ouest (Institut supérieur des sciences agronomiques, agroalimentaires, horticoles et du paysage)" }, "geometry": { "type": "Point", "coordinates": [ -1.707261415, 48.11333193 ] } },
{ "type": "Feature", "properties": { "organom": "Ecole des hautes études en santé publique" }, "geometry": { "type": "Point", "coordinates": [ -1.70290728, 48.11651303 ] } },
{ "type": "Feature", "properties": { "organom": "Ecole nationale supérieure de chimie de Rennes" }, "geometry": { "type": "Point", "coordinates": [ -1.632868923, 48.11949881 ] } },
{ "type": "Feature", "properties": { "organom": "ESMOD" }, "geometry": { "type": "Point", "coordinates": [ -1.6859272081, 48.113345185500002 ] } },
{ "type": "Feature", "properties": { "organom": "MJM Graphic Design" }, "geometry": { "type": "Point", "coordinates": [ -1.666046456, 48.11531966 ] } },
{ "type": "Feature", "properties": { "organom": "Le Pont Supérieur - pôle d'enseignement supérieur spectacle vivant Bretagne Pays de la Loire" }, "geometry": { "type": "Point", "coordinates": [ -1.661368557, 48.11291077 ] } },
{ "type": "Feature", "properties": { "organom": "Centre de formation professionnelle notariale" }, "geometry": { "type": "Point", "coordinates": [ -1.685513879, 48.10443887 ] } },
{ "type": "Feature", "properties": { "organom": "Instituts de formation en soins infirmiers et aide soignants - C.H.Guillaume Régnier" }, "geometry": { "type": "Point", "coordinates": [ -1.645294356, 48.11648726 ] } },
{ "type": "Feature", "properties": { "organom": "Collège coopératif en Bretagne" }, "geometry": { "type": "Point", "coordinates": [ -1.7093317005, 48.124859446199999 ] } },
{ "type": "Feature", "properties": { "organom": "Lycée Saint-Martin" }, "geometry": { "type": "Point", "coordinates": [ -1.679371032, 48.1165688 ] } },
{ "type": "Feature", "properties": { "organom": "Ecole technique  Le Cozic" }, "geometry": { "type": "Point", "coordinates": [ -1.652313952, 48.10533408 ] } },
{ "type": "Feature", "properties": { "organom": "Institut des métiers du notariat" }, "geometry": { "type": "Point", "coordinates": [ -1.685454898, 48.10434762 ] } },
{ "type": "Feature", "properties": { "organom": "ECOFAC Business School" }, "geometry": { "type": "Point", "coordinates": [ -1.650907874, 48.10093307 ] } },
{ "type": "Feature", "properties": { "organom": "Lycée Frédéric Ozanam" }, "geometry": { "type": "Point", "coordinates": [ -1.5973862642, 48.129613423099997 ] } },
{ "type": "Feature", "properties": { "organom": "Lycée d'enseignement général Joliot-Curie" }, "geometry": { "type": "Point", "coordinates": [ -1.648908944, 48.12633641 ] } },
{ "type": "Feature", "properties": { "organom": "Service orientation, insertion, entreprise - Université de Rennes 1" }, "geometry": { "type": "Point", "coordinates": [ -1.6770019329, 48.1156815525 ] } },
{ "type": "Feature", "properties": { "organom": "Institut franco américain" }, "geometry": { "type": "Point", "coordinates": [ -1.677094496, 48.11026838 ] } },
{ "type": "Feature", "properties": { "organom": "Union départementale des retraités FO" }, "geometry": { "type": "Point", "coordinates": [ -1.686501793, 48.11547479 ] } },
{ "type": "Feature", "properties": { "organom": "Club des retraités MGEN" }, "geometry": { "type": "Point", "coordinates": [ -1.671301479, 48.10559899 ] } },
{ "type": "Feature", "properties": { "organom": "Agence retraite Rennes Nord" }, "geometry": { "type": "Point", "coordinates": [ -1.641188892, 48.13109301 ] } },
{ "type": "Feature", "properties": { "organom": "Humanis" }, "geometry": { "type": "Point", "coordinates": [ -1.634750878, 48.13057436 ] } },
{ "type": "Feature", "properties": { "organom": "Agence retraite Rennes Sud" }, "geometry": { "type": "Point", "coordinates": [ -1.637306793, 48.09456872 ] } },
{ "type": "Feature", "properties": { "organom": "Ecoute maltraitance" }, "geometry": null },
{ "type": "Feature", "properties": { "organom": "Maison des associations" }, "geometry": { "type": "Point", "coordinates": [ -1.6765747055, 48.104922084 ] } },
{ "type": "Feature", "properties": { "organom": "Handicap services 35" }, "geometry": { "type": "Point", "coordinates": [ -1.5609248435, 48.1404084184 ] } },
{ "type": "Feature", "properties": { "organom": "Consultation pluridisciplinaire de gérontologie" }, "geometry": { "type": "Point", "coordinates": [ -1.678994716, 48.11793907 ] } },
{ "type": "Feature", "properties": { "organom": "Service de soins infirmiers à domicile secteur Ouest(CCAS)" }, "geometry": { "type": "Point", "coordinates": [ -1.708519297, 48.12337781 ] } },
{ "type": "Feature", "properties": { "organom": "Assia Réseau Una" }, "geometry": { "type": "Point", "coordinates": [ -1.655685854, 48.08710294 ] } },
{ "type": "Feature", "properties": { "organom": "ADMR Rennes et environs" }, "geometry": { "type": "Point", "coordinates": [ -1.677218854, 48.091511557899999 ] } },
{ "type": "Feature", "properties": { "organom": "Alliance vie" }, "geometry": { "type": "Point", "coordinates": [ -1.6920108576, 48.096437860400002 ] } },
{ "type": "Feature", "properties": { "organom": "Domusvi domicile" }, "geometry": { "type": "Point", "coordinates": [ -1.683050155, 48.11027089 ] } },
{ "type": "Feature", "properties": { "organom": "La Maison de Clochette" }, "geometry": { "type": "Point", "coordinates": [ -1.684049103, 48.11205243 ] } },
{ "type": "Feature", "properties": { "organom": "Adhap services" }, "geometry": { "type": "Point", "coordinates": [ -1.650679817, 48.0954812 ] } },
{ "type": "Feature", "properties": { "organom": "Assia Réseau Una" }, "geometry": { "type": "Point", "coordinates": [ -1.655685854, 48.08710294 ] } },
{ "type": "Feature", "properties": { "organom": "Union de recouvrement des cotisations de sécurité sociale et d'allocations familiales (Urssaf)" }, "geometry": { "type": "Point", "coordinates": [ -1.688952606, 48.12790762 ] } },
{ "type": "Feature", "properties": { "organom": "Les grands chênes - Pôle gériatrique rennais" }, "geometry": null },
{ "type": "Feature", "properties": { "organom": "Les Patios d'Or" }, "geometry": { "type": "Point", "coordinates": [ -1.703600121, 48.10735763 ] } },
{ "type": "Feature", "properties": { "organom": "Résidence Lucien Schroeder" }, "geometry": { "type": "Point", "coordinates": [ -1.689728106, 48.10563643 ] } },
{ "type": "Feature", "properties": { "organom": "Résidence de l'Ille (CCAS)" }, "geometry": { "type": "Point", "coordinates": [ -1.6502554935, 48.179724442800001 ] } },
{ "type": "Feature", "properties": { "organom": "Résidence Les Charmilles" }, "geometry": { "type": "Point", "coordinates": [ -1.8955804703, 48.216119565699998 ] } },
{ "type": "Feature", "properties": { "organom": "Association Valentin Haüy-Au service des aveugles et des malvoyants-Comité de Rennes et d'Ille et Vilaine" }, "geometry": { "type": "Point", "coordinates": [ -1.678304606, 48.11065313 ] } },
{ "type": "Feature", "properties": { "organom": "Université du temps libre du pays de Rennes" }, "geometry": { "type": "Point", "coordinates": [ -1.680299642, 48.10481375 ] } },
{ "type": "Feature", "properties": { "organom": "Retraite en forme" }, "geometry": { "type": "Point", "coordinates": [ -1.66617324, 48.08872013 ] } },
{ "type": "Feature", "properties": { "organom": "Société archéologique et historique d'Ille-et-Vilaine" }, "geometry": { "type": "Point", "coordinates": [ -1.693432072, 48.1285963 ] } },
{ "type": "Feature", "properties": { "organom": "Résidence du Parmenier" }, "geometry": { "type": "Point", "coordinates": [ -1.5462319885, 48.042678933300003 ] } },
{ "type": "Feature", "properties": { "organom": "Résidence personnes âgées Le Colombier (CCAS Rennes)" }, "geometry": { "type": "Point", "coordinates": [ -1.681828827, 48.10338028 ] } },
{ "type": "Feature", "properties": { "organom": "Résidence personnes âgées Edilys" }, "geometry": { "type": "Point", "coordinates": [ -1.664734647, 48.10670853 ] } },
{ "type": "Feature", "properties": { "organom": "Résidence Les maisons de La Touche" }, "geometry": { "type": "Point", "coordinates": [ -1.691508893, 48.11632037 ] } },
{ "type": "Feature", "properties": { "organom": "Résidence Lucien Schroeder" }, "geometry": { "type": "Point", "coordinates": [ -1.689728106, 48.10563643 ] } },
{ "type": "Feature", "properties": { "organom": "Résidence Les 3 Chênes" }, "geometry": { "type": "Point", "coordinates": [ -1.7834010602, 48.1471647499 ] } },
{ "type": "Feature", "properties": { "organom": "Hôtel-Dieu - CHU" }, "geometry": { "type": "Point", "coordinates": [ -1.678994716, 48.11793907 ] } },
{ "type": "Feature", "properties": { "organom": "Maison de retraite Raymond Thomas (CCAS Rennes)" }, "geometry": { "type": "Point", "coordinates": [ -1.707789129, 48.12024579 ] } },
{ "type": "Feature", "properties": { "organom": "Résidence Les quatre saisons" }, "geometry": { "type": "Point", "coordinates": [ -1.5388474636, 48.132935030699997 ] } },
{ "type": "Feature", "properties": { "organom": "Résidence Le champ du moulin" }, "geometry": { "type": "Point", "coordinates": [ -1.7956790021, 48.098947090899998 ] } },
{ "type": "Feature", "properties": { "organom": "Résidence du Pressoir" }, "geometry": { "type": "Point", "coordinates": [ -1.8530867192, 48.072269255899997 ] } },
{ "type": "Feature", "properties": { "organom": "Résidence Le pont aux moines" }, "geometry": { "type": "Point", "coordinates": [ -1.8267303455, 48.152832797400002 ] } },
{ "type": "Feature", "properties": { "organom": "Fédération addiction région Bretagne" }, "geometry": { "type": "Point", "coordinates": [ -1.680279643, 48.08891028 ] } },
{ "type": "Feature", "properties": { "organom": "Club Coeur et Santé" }, "geometry": { "type": "Point", "coordinates": [ -1.680279643, 48.08891028 ] } },
{ "type": "Feature", "properties": { "organom": "Ville de Rennes -Direction santé publique handicap" }, "geometry": { "type": "Point", "coordinates": [ -1.683013463, 48.1107161 ] } },
{ "type": "Feature", "properties": { "organom": "Croix-Rouge Française - Unité locale" }, "geometry": { "type": "Point", "coordinates": [ -1.634169746, 48.09580046 ] } },
{ "type": "Feature", "properties": { "organom": "Le collectif Prév'en ville" }, "geometry": { "type": "Point", "coordinates": [ -1.676664679, 48.10504528 ] } },
{ "type": "Feature", "properties": { "organom": "Santé info droits" }, "geometry": null },
{ "type": "Feature", "properties": { "organom": "Point Accueil MAS" }, "geometry": { "type": "Point", "coordinates": [ -1.678137478, 48.1176531 ] } },
{ "type": "Feature", "properties": { "organom": "Caisse primaire d'assurance maladie d'Ille-et-Vilaine" }, "geometry": { "type": "Point", "coordinates": [ -1.674751621, 48.10588536 ] } },
{ "type": "Feature", "properties": { "organom": "Carsat - Département des risques professionnels" }, "geometry": { "type": "Point", "coordinates": [ -1.637254658, 48.09453691 ] } },
{ "type": "Feature", "properties": { "organom": "Partenariat et prévention sociale" }, "geometry": { "type": "Point", "coordinates": [ -1.637306793, 48.09456872 ] } },
{ "type": "Feature", "properties": { "organom": "Maison associative de la santé" }, "geometry": { "type": "Point", "coordinates": [ -1.680279643, 48.08891028 ] } },
{ "type": "Feature", "properties": { "organom": "Hôpital privé Sévigné" }, "geometry": { "type": "Point", "coordinates": [ -1.6273808412, 48.130108873600001 ] } },
{ "type": "Feature", "properties": { "organom": "Maison des parents - CHU" }, "geometry": { "type": "Point", "coordinates": [ -1.65166281, 48.08270744 ] } },
{ "type": "Feature", "properties": { "organom": "Centre médical Louis Guilloux - Réseau Louis Guilloux" }, "geometry": { "type": "Point", "coordinates": [ -1.683827222, 48.09263307 ] } },
{ "type": "Feature", "properties": { "organom": "Médecins, infirmières - Direction académique des services de l'éducation nationale d'Ille-et-Vilaine (DASEN 35)" }, "geometry": { "type": "Point", "coordinates": [ -1.671546066, 48.11035137 ] } },
{ "type": "Feature", "properties": { "organom": "Centre départemental d'action sociale - Rennes Le Blosne Francisco-Ferrer" }, "geometry": { "type": "Point", "coordinates": [ -1.657855103, 48.08847442 ] } },
{ "type": "Feature", "properties": { "organom": "Centre médico psycho-pédagogique et Centre d'action médico-sociale précoce (CMPP\/CAMSP)" }, "geometry": { "type": "Point", "coordinates": [ -1.672166103, 48.11837557 ] } },
{ "type": "Feature", "properties": { "organom": "Centre médico-psychologique (CMP) La petite Ourse" }, "geometry": { "type": "Point", "coordinates": [ -1.672014544, 48.0914802 ] } },
{ "type": "Feature", "properties": { "organom": "Centre médico-psychologique (CMP) Villejean" }, "geometry": { "type": "Point", "coordinates": [ -1.706426429, 48.12019897 ] } },
{ "type": "Feature", "properties": { "organom": "Centre thérapeutique de jour (CTJ) Janet Frame" }, "geometry": { "type": "Point", "coordinates": [ -1.664016083, 48.12970699 ] } },
{ "type": "Feature", "properties": { "organom": "Centre médico-psychologique (CMP) La Sauvaie" }, "geometry": { "type": "Point", "coordinates": [ -1.634460484, 48.0948473 ] } },
{ "type": "Feature", "properties": { "organom": "Association L'antre-2 \/ L'antre-2-Café" }, "geometry": { "type": "Point", "coordinates": [ -1.691991307, 48.11113155 ] } },
{ "type": "Feature", "properties": { "organom": "Union nationale amis et familles de malades psychiques" }, "geometry": { "type": "Point", "coordinates": [ -1.66838489, 48.08762016 ] } },
{ "type": "Feature", "properties": { "organom": "Le Planning familial 35" }, "geometry": { "type": "Point", "coordinates": [ -1.687809056, 48.11284077 ] } },
{ "type": "Feature", "properties": { "organom": "Sida info service" }, "geometry": null },
{ "type": "Feature", "properties": { "organom": "Centre de dépistage anonyme et gratuit du Sida (CDAG) - CHU" }, "geometry": { "type": "Point", "coordinates": [ -1.693900938, 48.11869034 ] } },
{ "type": "Feature", "properties": { "organom": "Consultation des infections sexuellement transmissibles - CHU" }, "geometry": { "type": "Point", "coordinates": [ -1.693926531, 48.11861098 ] } },
{ "type": "Feature", "properties": { "organom": "Alcooliques anonymes - groupe Stivell" }, "geometry": { "type": "Point", "coordinates": [ -1.708505046, 48.122068 ] } },
{ "type": "Feature", "properties": { "organom": "Unité hospitalière d'alcoologie - CHU" }, "geometry": { "type": "Point", "coordinates": [ -1.693867001, 48.11878482 ] } },
{ "type": "Feature", "properties": { "organom": "Les amis de la santé d'Ille-et-Vilaine" }, "geometry": { "type": "Point", "coordinates": [ -1.680279643, 48.08891028 ] } },
{ "type": "Feature", "properties": { "organom": "Consultation anti-dopage - CHU" }, "geometry": { "type": "Point", "coordinates": [ -1.693690416, 48.11879513 ] } },
{ "type": "Feature", "properties": { "organom": "Drogue info service" }, "geometry": null },
{ "type": "Feature", "properties": { "organom": "Centre de réadaptation psychologique et sociale de la Thébaudais (Ugecam)" }, "geometry": { "type": "Point", "coordinates": [ -1.662208909, 48.09173962 ] } },
{ "type": "Feature", "properties": { "organom": "Pôle de médecine physique et réadaptation Saint-Hélier" }, "geometry": { "type": "Point", "coordinates": [ -1.669150535, 48.10636442 ] } },
{ "type": "Feature", "properties": { "organom": "Unité de la" }, "geometry": { "type": "Point", "coordinates": [ -1.680716246, 48.10738271 ] } },
{ "type": "Feature", "properties": { "organom": "Jean Leperdit" }, "geometry": { "type": "Point", "coordinates": [ -1.68030073, 48.11295568 ] } },
{ "type": "Feature", "properties": { "organom": "Question de niveaux \/ Niveau de lecture" }, "geometry": { "type": "Point", "coordinates": [ -1.677154241, 48.11523059 ] } },
{ "type": "Feature", "properties": { "organom": "Le Magicien" }, "geometry": { "type": "Point", "coordinates": [ -1.674052, 48.111271 ] } },
{ "type": "Feature", "properties": { "organom": "Arbre et façade" }, "geometry": { "type": "Point", "coordinates": [ -1.677282045, 48.10614281 ] } },
{ "type": "Feature", "properties": { "organom": "Terrasses du Vertugadin" }, "geometry": { "type": "Point", "coordinates": [ -1.6549197854, 48.109855934700001 ] } },
{ "type": "Feature", "properties": { "organom": "Il était une fois dans un pays lointain" }, "geometry": { "type": "Point", "coordinates": [ -1.689549408, 48.08292065 ] } },
{ "type": "Feature", "properties": { "organom": "Oniris-galerie d'art contemporain" }, "geometry": { "type": "Point", "coordinates": [ -1.678769571, 48.11584032 ] } },
{ "type": "Feature", "properties": { "organom": "Galerie Divet" }, "geometry": { "type": "Point", "coordinates": [ -1.682804779, 48.11209824 ] } },
{ "type": "Feature", "properties": { "organom": "Lab 61" }, "geometry": { "type": "Point", "coordinates": [ -1.6721598887, 48.118282171600001 ] } },
{ "type": "Feature", "properties": { "organom": "Musée de Bretagne" }, "geometry": { "type": "Point", "coordinates": [ -1.675120453, 48.10504553 ] } },
{ "type": "Feature", "properties": { "organom": "Archives de Rennes" }, "geometry": { "type": "Point", "coordinates": [ -1.67113454, 48.11971343 ] } },
{ "type": "Feature", "properties": { "organom": "Ecomusée du pays de Rennes" }, "geometry": { "type": "Point", "coordinates": [ -1.665488952, 48.07980787 ] } },
{ "type": "Feature", "properties": { "organom": "Le Liberté et l'Etage" }, "geometry": { "type": "Point", "coordinates": [ -1.676795297, 48.10659361 ] } },
{ "type": "Feature", "properties": { "organom": "Théâtre La Paillette" }, "geometry": { "type": "Point", "coordinates": [ -1.697207288, 48.10925193 ] } },
{ "type": "Feature", "properties": { "organom": "Théâtre de l'Arpenteur" }, "geometry": { "type": "Point", "coordinates": [ -1.656682097, 48.11665572 ] } },
{ "type": "Feature", "properties": { "organom": "Halle Martenot" }, "geometry": { "type": "Point", "coordinates": [ -1.683338779, 48.1127803 ] } },
{ "type": "Feature", "properties": { "organom": "Salle de la Cité" }, "geometry": { "type": "Point", "coordinates": [ -1.682026012, 48.11462672 ] } },
{ "type": "Feature", "properties": { "organom": "Salle Guy Ropartz" }, "geometry": { "type": "Point", "coordinates": [ -1.655939304, 48.12962604 ] } },
{ "type": "Feature", "properties": { "organom": "Lycée L'Assomption" }, "geometry": { "type": "Point", "coordinates": [ -1.658718671, 48.1222579 ] } },
{ "type": "Feature", "properties": { "organom": "Triptik" }, "geometry": { "type": "Point", "coordinates": [ -1.528998, 48.143724 ] } },
{ "type": "Feature", "properties": { "organom": "Espace le Bocage" }, "geometry": { "type": "Point", "coordinates": [ -1.555562, 48.041822 ] } },
{ "type": "Feature", "properties": { "organom": "L'Aire Libre" }, "geometry": { "type": "Point", "coordinates": [ -1.7208008431, 48.067829815499998 ] } },
{ "type": "Feature", "properties": { "organom": "Le Volume" }, "geometry": { "type": "Point", "coordinates": [ -1.6020190761, 48.0439297319 ] } },
{ "type": "Feature", "properties": { "organom": "CinéMA 35" }, "geometry": { "type": "Point", "coordinates": [ -1.5340172794, 48.132955829399997 ] } },
{ "type": "Feature", "properties": { "organom": "Oniris-galerie d'art contemporain" }, "geometry": { "type": "Point", "coordinates": [ -1.678769571, 48.11584032 ] } },
{ "type": "Feature", "properties": { "organom": "La Criée" }, "geometry": { "type": "Point", "coordinates": [ -1.679634147, 48.10808481 ] } },
{ "type": "Feature", "properties": { "organom": "Association départementale d'aide aux tuteurs, curateurs et mandataires judiciaires à la protection judiciaire des majeurs" }, "geometry": { "type": "Point", "coordinates": [ -1.687045212, 48.10505565 ] } },
{ "type": "Feature", "properties": { "organom": "Mouvement Chrétien des Retraités d'Ille & Vilaine" }, "geometry": { "type": "Point", "coordinates": [ -1.698529232, 48.11341639 ] } },
{ "type": "Feature", "properties": { "organom": "Dialogue et solidarité" }, "geometry": { "type": "Point", "coordinates": [ -1.6337373744, 48.092650713799998 ] } },
{ "type": "Feature", "properties": { "organom": "Mutuelle générale de l'éducation nationale" }, "geometry": { "type": "Point", "coordinates": [ -1.635074384, 48.09377387 ] } },
{ "type": "Feature", "properties": { "organom": "Caisse d'assurance retraite et de la  santé au travail" }, "geometry": { "type": "Point", "coordinates": [ -1.637154942, 48.09436369 ] } },
{ "type": "Feature", "properties": { "organom": "Espace médiation" }, "geometry": { "type": "Point", "coordinates": [ -1.667991767, 48.08799233 ] } },
{ "type": "Feature", "properties": { "organom": "Centre local d'information et de coordination (Clic) - Rennes" }, "geometry": { "type": "Point", "coordinates": [ -1.683342609, 48.11092004 ] } },
{ "type": "Feature", "properties": { "organom": "Mutualité Française Bretagne" }, "geometry": { "type": "Point", "coordinates": [ -1.712808378, 48.09972667 ] } },
{ "type": "Feature", "properties": { "organom": "Assia Réseau Una" }, "geometry": { "type": "Point", "coordinates": [ -1.7013424359, 48.037159114700003 ] } },
{ "type": "Feature", "properties": { "organom": "Agence Star" }, "geometry": { "type": "Point", "coordinates": [ -1.678799367, 48.10913892 ] } },
{ "type": "Feature", "properties": { "organom": "Transport service personnes handicapées" }, "geometry": { "type": "Point", "coordinates": [ -1.5867153309, 48.1512358815 ] } },
{ "type": "Feature", "properties": { "organom": "Hôpital de jour gériatrique - CHU" }, "geometry": { "type": "Point", "coordinates": [ -1.678976207, 48.11736912 ] } },
{ "type": "Feature", "properties": { "organom": "Consultation mémoire\/Les grands chênes - Pôle Gériatrique Rennais" }, "geometry": null },
{ "type": "Feature", "properties": { "organom": "Mieux vivre chez soi" }, "geometry": { "type": "Point", "coordinates": [ -1.709253374, 48.12092741 ] } },
{ "type": "Feature", "properties": { "organom": "Service d'aide et d'accompagnement à domicile secteur Sud de Rennes (CCAS)" }, "geometry": { "type": "Point", "coordinates": [ -1.652315666, 48.08657546 ] } },
{ "type": "Feature", "properties": { "organom": "A2micile" }, "geometry": { "type": "Point", "coordinates": [ -1.7599978898, 48.030167107499999 ] } },
{ "type": "Feature", "properties": { "organom": "AUB-Santé" }, "geometry": { "type": "Point", "coordinates": [ -1.6880353131, 48.143242534800002 ] } },
{ "type": "Feature", "properties": { "organom": "Celt' Services" }, "geometry": { "type": "Point", "coordinates": [ -1.6882784776, 48.160656318100003 ] } },
{ "type": "Feature", "properties": { "organom": "La Maison en ville" }, "geometry": { "type": "Point", "coordinates": [ -1.679985734, 48.11730046 ] } },
{ "type": "Feature", "properties": { "organom": "Bretagne Arc-en-Ciel" }, "geometry": { "type": "Point", "coordinates": [ -1.6625564827, 48.1265965053 ] } },
{ "type": "Feature", "properties": { "organom": "Résidence Hespérides" }, "geometry": { "type": "Point", "coordinates": [ -1.676429797, 48.10898986 ] } },
{ "type": "Feature", "properties": { "organom": "Maison Saint-Cyr" }, "geometry": { "type": "Point", "coordinates": [ -1.697566917, 48.11071749 ] } },
{ "type": "Feature", "properties": { "organom": "Résidence La Budorais" }, "geometry": { "type": "Point", "coordinates": [ -1.6599803261, 48.041850766300001 ] } },
{ "type": "Feature", "properties": { "organom": "Maison associative de la santé" }, "geometry": { "type": "Point", "coordinates": [ -1.680279643, 48.08891028 ] } },
{ "type": "Feature", "properties": { "organom": "Résidence personnes âgées Le Colombier (CCAS Rennes)" }, "geometry": { "type": "Point", "coordinates": [ -1.681828827, 48.10338028 ] } },
{ "type": "Feature", "properties": { "organom": "Maison de retraite Raymond Thomas (CCAS Rennes)" }, "geometry": { "type": "Point", "coordinates": [ -1.707789129, 48.12024579 ] } },
{ "type": "Feature", "properties": { "organom": "Dispositif de soutien aux tuteurs familiaux" }, "geometry": { "type": "Point", "coordinates": [ -1.713744666, 48.11474801 ] } },
{ "type": "Feature", "properties": { "organom": "Tribunal d'Instance" }, "geometry": { "type": "Point", "coordinates": [ -1.687338671, 48.10511382 ] } },
{ "type": "Feature", "properties": { "organom": "Société Saint-Vincent de Paul" }, "geometry": { "type": "Point", "coordinates": [ -1.682916426, 48.10313954 ] } },
{ "type": "Feature", "properties": { "organom": "Les petits frères des pauvres" }, "geometry": { "type": "Point", "coordinates": [ -1.676833641, 48.09674279 ] } },
{ "type": "Feature", "properties": { "organom": "Visiteurs de malades dans les établissements hospitaliers" }, "geometry": { "type": "Point", "coordinates": [ -1.680280286, 48.08890957 ] } },
{ "type": "Feature", "properties": { "organom": "Observatoire et pôle d'animation des retraités rennais (Opar)" }, "geometry": { "type": "Point", "coordinates": [ -1.6815856329, 48.1181014828 ] } },
{ "type": "Feature", "properties": { "organom": "Comité départemental d'éducation physique et de gymnastique volontaire" }, "geometry": { "type": "Point", "coordinates": [ -1.699543405, 48.1262461 ] } },
{ "type": "Feature", "properties": { "organom": "Loisirs et solidarité des retraités d'Ille-et-Vilaine" }, "geometry": { "type": "Point", "coordinates": [ -1.666352705, 48.08385224 ] } },
{ "type": "Feature", "properties": { "organom": "Petites soeurs des pauvres-Ma Maison" }, "geometry": { "type": "Point", "coordinates": [ -1.643602999, 48.11342509 ] } },
{ "type": "Feature", "properties": { "organom": "Association Maison Saint-François – Maison de retraite" }, "geometry": { "type": "Point", "coordinates": [ -1.679342054, 48.12226909 ] } },
{ "type": "Feature", "properties": { "organom": "Petites soeurs des pauvres-Ma Maison" }, "geometry": { "type": "Point", "coordinates": [ -1.643602999, 48.11342509 ] } },
{ "type": "Feature", "properties": { "organom": "Résidence Les jardins de la Poterie" }, "geometry": { "type": "Point", "coordinates": [ -1.636783199, 48.09303192 ] } },
{ "type": "Feature", "properties": { "organom": "Résidence les jardins d'hermine" }, "geometry": { "type": "Point", "coordinates": [ -1.636639616, 48.09747708 ] } },
{ "type": "Feature", "properties": { "organom": "Résidence Kérélys" }, "geometry": { "type": "Point", "coordinates": [ -1.8040979855, 48.124625218699997 ] } },
{ "type": "Feature", "properties": { "organom": "Résidence La Budorais" }, "geometry": { "type": "Point", "coordinates": [ -1.6599803261, 48.041850766300001 ] } },
{ "type": "Feature", "properties": { "organom": "Maison de retraite Gaëtan Hervé (CCAS Rennes)" }, "geometry": { "type": "Point", "coordinates": [ -1.664608858, 48.09098149 ] } },
{ "type": "Feature", "properties": { "organom": "Maison de retraite Champs Manceaux (CCAS Rennes)" }, "geometry": { "type": "Point", "coordinates": [ -1.683851067, 48.09080237 ] } },
{ "type": "Feature", "properties": { "organom": "Résidence Beausoleil (CCAS)" }, "geometry": { "type": "Point", "coordinates": [ -1.6100688972, 48.120525912399998 ] } },
{ "type": "Feature", "properties": { "organom": "Ehpad Résidence Les Chênes" }, "geometry": null },
{ "type": "Feature", "properties": { "organom": "Résidence La Poterie (CCAS)" }, "geometry": { "type": "Point", "coordinates": [ -1.7086872063, 48.0425858029 ] } },
{ "type": "Feature", "properties": { "organom": "Ehpad Le Clos d'Orrière" }, "geometry": { "type": "Point", "coordinates": [ -1.603733, 48.047982 ] } },
{ "type": "Feature", "properties": { "organom": "La maison d'Ilona" }, "geometry": { "type": "Point", "coordinates": [ -1.6817067531, 48.099937671399999 ] } },
{ "type": "Feature", "properties": { "organom": "Association pour le dépistage des cancers en Ille-et-Vilaine" }, "geometry": { "type": "Point", "coordinates": [ -1.707847252, 48.10483991 ] } },
{ "type": "Feature", "properties": { "organom": "Instance régionale d'éducation et de promotion de la santé" }, "geometry": { "type": "Point", "coordinates": [ -1.636452755, 48.09564844 ] } },
{ "type": "Feature", "properties": { "organom": "Accueil CPAM \/ Villejean" }, "geometry": { "type": "Point", "coordinates": [ -1.709994798, 48.12102729 ] } },
{ "type": "Feature", "properties": { "organom": "Collectif interassociatif sur la santé en Bretagne" }, "geometry": { "type": "Point", "coordinates": [ -1.657772592, 48.08399447 ] } },
{ "type": "Feature", "properties": { "organom": "Clinique Saint-Yves" }, "geometry": { "type": "Point", "coordinates": [ -1.663201431, 48.10176952 ] } },
{ "type": "Feature", "properties": { "organom": "Hôpital Sud - CHU" }, "geometry": { "type": "Point", "coordinates": [ -1.653225394, 48.08314284 ] } },
{ "type": "Feature", "properties": { "organom": "Association les Ajoncs accueil et accompagnement" }, "geometry": { "type": "Point", "coordinates": [ -1.682547571, 48.11680374 ] } },
{ "type": "Feature", "properties": { "organom": "Centre d'examens de santé" }, "geometry": { "type": "Point", "coordinates": [ -1.680299642, 48.10481375 ] } },
{ "type": "Feature", "properties": { "organom": "Point Santé Beaulieu" }, "geometry": { "type": "Point", "coordinates": [ -1.636423522, 48.11433908 ] } },
{ "type": "Feature", "properties": { "organom": "Pôle de psychiatrie de l'enfant et de l'adolescent (PEA)" }, "geometry": { "type": "Point", "coordinates": [ -1.651699234, 48.11460256 ] } },
{ "type": "Feature", "properties": { "organom": "Point Santé Villejean" }, "geometry": { "type": "Point", "coordinates": [ -1.703662242, 48.11926383 ] } },
{ "type": "Feature", "properties": { "organom": "Centre médico psycho-pédagogique et Centre d'action médico-sociale précoce (CMPP\/CAMSP) Le Blosne-Est" }, "geometry": { "type": "Point", "coordinates": [ -1.661567555, 48.08709793 ] } },
{ "type": "Feature", "properties": { "organom": "Centre médico-psychologique (CMP) St Exupéry" }, "geometry": { "type": "Point", "coordinates": [ -1.661679524, 48.1236946 ] } },
{ "type": "Feature", "properties": { "organom": "Centre d'accueil thérapeutique à temps partiel (CATTP) La Sauvaie" }, "geometry": { "type": "Point", "coordinates": [ -1.634380206, 48.09493166 ] } },
{ "type": "Feature", "properties": { "organom": "Union nationale des dépressifs et maniaco-dépressifs - troubles bipolaires" }, "geometry": { "type": "Point", "coordinates": [ -1.676893886, 48.08627133 ] } },
{ "type": "Feature", "properties": { "organom": "Centre d'information sur les droits des femmes et des familles (CIDFF)" }, "geometry": { "type": "Point", "coordinates": [ -1.68607633, 48.11462366 ] } },
{ "type": "Feature", "properties": { "organom": "Service de médecine légale - CHU" }, "geometry": { "type": "Point", "coordinates": [ -1.689873935, 48.12149696 ] } },
{ "type": "Feature", "properties": { "organom": "Centre de planification et d'éducation familiale Maurepas-Patton" }, "geometry": { "type": "Point", "coordinates": [ -1.663587651, 48.12628717 ] } },
{ "type": "Feature", "properties": { "organom": "Centre de planification et d'éducation familiale Champs-Manceaux-Châtillon" }, "geometry": { "type": "Point", "coordinates": [ -1.681808632, 48.09190334 ] } },
{ "type": "Feature", "properties": { "organom": "Alcool info service" }, "geometry": null },
{ "type": "Feature", "properties": { "organom": "Centre de postcure l'Escale" }, "geometry": { "type": "Point", "coordinates": [ -1.714980108, 48.10912644 ] } },
{ "type": "Feature", "properties": { "organom": "Alcooliques anonymes - groupe Rennes patton" }, "geometry": { "type": "Point", "coordinates": [ -1.668060779, 48.13559566 ] } },
{ "type": "Feature", "properties": { "organom": "Clinique d'alcoologie Philae" }, "geometry": { "type": "Point", "coordinates": [ -1.695665, 48.001449 ] } },
{ "type": "Feature", "properties": { "organom": "Drogue information" }, "geometry": null },
{ "type": "Feature", "properties": { "organom": "Association d'information et de ressources sur les drogues et dépendances et le sida" }, "geometry": { "type": "Point", "coordinates": [ -1.680205053, 48.10553286 ] } },
{ "type": "Feature", "properties": { "organom": "Tabac info service" }, "geometry": null },
{ "type": "Feature", "properties": { "organom": "Centre d'aide à l'arrêt du tabac" }, "geometry": { "type": "Point", "coordinates": [ -1.65768698, 48.13803016 ] } },
{ "type": "Feature", "properties": { "organom": "Unité de tabacologie - CHU" }, "geometry": { "type": "Point", "coordinates": [ -1.693850162, 48.12057232 ] } },
{ "type": "Feature", "properties": { "organom": "Les grands chênes - Pôle gériatrique rennais" }, "geometry": null },
{ "type": "Feature", "properties": { "organom": "Centre de soins dentaires - CHU" }, "geometry": { "type": "Point", "coordinates": [ -1.673831651, 48.1104583 ] } },
{ "type": "Feature", "properties": { "organom": "Hôtel-Dieu - CHU" }, "geometry": { "type": "Point", "coordinates": [ -1.678994716, 48.11793907 ] } },
{ "type": "Feature", "properties": { "organom": "La Tauvrais -Gériatrie - CHU" }, "geometry": { "type": "Point", "coordinates": [ -1.66079719, 48.13783106 ] } },
{ "type": "Feature", "properties": { "organom": "Centre hospitalier Guillaume Régnier (CHGR)" }, "geometry": { "type": "Point", "coordinates": [ -1.651704197, 48.11301999 ] } },
{ "type": "Feature", "properties": { "organom": "Mouvement de la Paix - Comité départemental" }, "geometry": { "type": "Point", "coordinates": [ -1.653265771, 48.08823826 ] } },
{ "type": "Feature", "properties": { "organom": "Union des associations interculturelles de Rennes" }, "geometry": { "type": "Point", "coordinates": [ -1.681587171, 48.11810055 ] } },
{ "type": "Feature", "properties": { "organom": "Cimade" }, "geometry": { "type": "Point", "coordinates": [ -1.678626168, 48.10761372 ] } },
{ "type": "Feature", "properties": { "organom": "La Maison en ville" }, "geometry": { "type": "Point", "coordinates": [ -1.679985734, 48.11730046 ] } },
{ "type": "Feature", "properties": { "organom": "Droit au logement 35" }, "geometry": { "type": "Point", "coordinates": [ -1.654504505, 48.09157896 ] } },
{ "type": "Feature", "properties": { "organom": "Groupement étudiant d'enseignement aux personnes incarcérées à Rennes" }, "geometry": { "type": "Point", "coordinates": [ -1.676580238, 48.10493339 ] } },
{ "type": "Feature", "properties": { "organom": "Centre de mobilité internationale de Rennes (CMI Rennes \/ UEB)" }, "geometry": { "type": "Point", "coordinates": [ -1.665617639, 48.10841184 ] } },
{ "type": "Feature", "properties": { "organom": "Institut national des sciences appliquées" }, "geometry": { "type": "Point", "coordinates": [ -1.634423702, 48.12140047 ] } },
{ "type": "Feature", "properties": { "organom": "Maison des familles" }, "geometry": { "type": "Point", "coordinates": [ -1.70614908, 48.10115762 ] } },
{ "type": "Feature", "properties": { "organom": "Centre social Carrefour 18" }, "geometry": { "type": "Point", "coordinates": [ -1.672416964, 48.08716104 ] } },
{ "type": "Feature", "properties": { "organom": "Association franco-iranienne de Bretagne" }, "geometry": { "type": "Point", "coordinates": [ -1.6702563856, 48.118941401500003 ] } },
{ "type": "Feature", "properties": { "organom": "Collège Jean Moulin" }, "geometry": { "type": "Point", "coordinates": [ -1.7139691851, 48.076876312499998 ] } },
{ "type": "Feature", "properties": { "organom": "Survie Ille-et-Vilaine" }, "geometry": { "type": "Point", "coordinates": [ -1.672703992, 48.10564268 ] } },
{ "type": "Feature", "properties": { "organom": "Institut franco américain" }, "geometry": { "type": "Point", "coordinates": [ -1.677094496, 48.11026838 ] } },
{ "type": "Feature", "properties": { "organom": "Collectif Brésil Rennes" }, "geometry": { "type": "Point", "coordinates": [ -1.699940239, 48.11556999 ] } },
{ "type": "Feature", "properties": { "organom": "Solidarité Bretagne Cambodge" }, "geometry": { "type": "Point", "coordinates": [ -1.65976939, 48.08616395 ] } },
{ "type": "Feature", "properties": { "organom": "Kavkassia - centre culturel caucaso-géorgien" },